{
  "meta": {
    "data_version": "v2",
    "last_built_at": "2025-12-07T02:14:07.080Z",
    "source_url": "https://theeditchase.com/properties",
    "total_hotels": 1255
  },
  "hotels": [
    {
      "id": "laurel-hotel-and-spa-auburn",
      "name": "Laurel Hotel and Spa",
      "city": "Auburn",
      "country": "Alabama",
      "needs_review": true,
      "latitude": 32.6098566,
      "longitude": -85.4807825,
      "map_url": "https://www.google.com/maps/search/?api=1&query=32.6098566,-85.4807825"
    },
    {
      "id": "cap-juluca-a-belmond-hotel-maundays-bay",
      "name": "Cap Juluca, A Belmond Hotel",
      "brand": "Belmond",
      "city": "Maundays Bay",
      "country": "Anguilla",
      "latitude": 18.1683,
      "longitude": -63.1528,
      "map_url": "https://www.google.com/maps/search/?api=1&query=18.1683,-63.1528",
      "needs_review": false
    },
    {
      "id": "aurora-anguilla-resort-golf-club-rendezvous-bay",
      "name": "Aurora Anguilla Resort & Golf Club",
      "city": "Rendezvous Bay",
      "country": "Anguilla",
      "latitude": 18.1735,
      "longitude": -63.0583,
      "map_url": "https://www.google.com/maps/search/?api=1&query=18.1735,-63.0583",
      "needs_review": false
    },
    {
      "id": "four-seasons-resort-and-residences-anguilla-west-end-village",
      "name": "Four Seasons Resort and Residences Anguilla",
      "brand": "Four Seasons",
      "city": "West End Village",
      "country": "Anguilla",
      "latitude": 18.2167,
      "longitude": -63.15,
      "map_url": "https://www.google.com/maps/search/?api=1&query=18.2167,-63.15",
      "needs_review": false
    },
    {
      "id": "malliouhana-resort-anguilla-west-end-village",
      "name": "Malliouhana Resort Anguilla",
      "city": "West End Village",
      "country": "Anguilla",
      "latitude": 18.2167,
      "longitude": -63.15,
      "map_url": "https://www.google.com/maps/search/?api=1&query=18.2167,-63.15",
      "needs_review": false
    },
    {
      "id": "carlisle-bay-saint-mary-parish",
      "name": "Carlisle Bay",
      "city": "Saint Mary Parish",
      "country": "Antigua & Barbuda",
      "latitude": 17.0608,
      "longitude": -61.7964,
      "map_url": "https://www.google.com/maps/search/?api=1&query=17.0608,-61.7964",
      "needs_review": false
    },
    {
      "id": "jumby-bay-island-oetker-hotels-st-john-s",
      "name": "Jumby Bay Island, Oetker Hotels",
      "city": "St. John's",
      "country": "Antigua & Barbuda",
      "latitude": 17.1175,
      "longitude": -61.8456,
      "map_url": "https://www.google.com/maps/search/?api=1&query=17.1175,-61.8456",
      "needs_review": false
    },
    {
      "id": "the-inn-at-english-harbour-st-paul-s",
      "name": "The Inn at English Harbour",
      "city": "St. Paul's",
      "country": "Antigua & Barbuda",
      "latitude": 17.0478,
      "longitude": -61.7828,
      "map_url": "https://www.google.com/maps/search/?api=1&query=17.0478,-61.7828",
      "needs_review": false
    },
    {
      "id": "faena-hotel-buenos-aires-buenos-aires",
      "name": "Faena Hotel Buenos Aires",
      "city": "Buenos Aires",
      "country": "Argentina",
      "latitude": -34.6037,
      "longitude": -58.3816,
      "map_url": "https://www.google.com/maps/search/?api=1&query=-34.6037,-58.3816",
      "needs_review": false
    },
    {
      "id": "four-seasons-hotel-buenos-aires-buenos-aires",
      "name": "Four Seasons Hotel Buenos Aires",
      "brand": "Four Seasons",
      "city": "Buenos Aires",
      "country": "Argentina",
      "latitude": -34.6037,
      "longitude": -58.3816,
      "map_url": "https://www.google.com/maps/search/?api=1&query=-34.6037,-58.3816",
      "needs_review": false
    },
    {
      "id": "palacio-duhau-park-hyatt-buenos-aires-buenos-aires",
      "name": "Palacio Duhau - Park Hyatt Buenos Aires",
      "brand": "Park Hyatt",
      "city": "Buenos Aires",
      "country": "Argentina",
      "needs_review": false,
      "latitude": -34.6037,
      "longitude": -58.3816,
      "map_url": "https://www.google.com/maps/search/?api=1&query=-34.6037,-58.3816"
    },
    {
      "id": "palacio-duhau-park-hyatt-buenos-aires-buenos-aires",
      "name": "Palacio Duhau",
      "city": "Park Hyatt Buenos Aires - Buenos Aires",
      "country": "Argentina",
      "latitude": -34.6037,
      "longitude": -58.3816,
      "map_url": "https://www.google.com/maps/search/?api=1&query=-34.6037,-58.3816",
      "needs_review": false
    },
    {
      "id": "the-vines-resort-spa-tunuyan-uco-valley-mendoza",
      "name": "The Vines Resort & Spa",
      "city": "Tunuyan - Uco Valley - Mendoza",
      "country": "Argentina",
      "latitude": -33.58,
      "longitude": -69.0167,
      "map_url": "https://www.google.com/maps/search/?api=1&query=-33.58,-69.0167",
      "needs_review": false
    },
    {
      "id": "castle-hot-springs-morristown",
      "name": "Castle Hot Springs",
      "city": "Morristown",
      "country": "Arizona",
      "needs_review": true,
      "latitude": 33.8650219,
      "longitude": -112.6111775,
      "map_url": "https://www.google.com/maps/search/?api=1&query=33.8650219,-112.6111775"
    },
    {
      "id": "royal-palms-resort-and-spa-part-of-hyatt-phoenix",
      "name": "Royal Palms Resort and Spa, part of Hyatt",
      "city": "Phoenix",
      "country": "Arizona",
      "needs_review": true,
      "latitude": 33.4484367,
      "longitude": -112.074141,
      "map_url": "https://www.google.com/maps/search/?api=1&query=33.4484367,-112.074141"
    },
    {
      "id": "the-global-ambassador-phoenix",
      "name": "The Global Ambassador",
      "city": "Phoenix",
      "country": "Arizona",
      "needs_review": true,
      "latitude": 33.4484367,
      "longitude": -112.074141,
      "map_url": "https://www.google.com/maps/search/?api=1&query=33.4484367,-112.074141"
    },
    {
      "id": "andaz-scottsdale-resort-bungalows-scottsdale",
      "name": "Andaz Scottsdale Resort & Bungalows",
      "brand": "Andaz",
      "city": "Scottsdale",
      "country": "Arizona",
      "latitude": 33.4942,
      "longitude": -111.9261,
      "map_url": "https://www.google.com/maps/search/?api=1&query=33.4942,-111.9261",
      "needs_review": false
    },
    {
      "id": "fairmont-scottsdale-princess-scottsdale",
      "name": "Fairmont Scottsdale Princess",
      "brand": "Fairmont",
      "city": "Scottsdale",
      "country": "Arizona",
      "latitude": 33.4942,
      "longitude": -111.9261,
      "map_url": "https://www.google.com/maps/search/?api=1&query=33.4942,-111.9261",
      "needs_review": false
    },
    {
      "id": "four-seasons-resort-scottsdale-at-troon-north-scottsdale",
      "name": "Four Seasons Resort Scottsdale at Troon North",
      "brand": "Four Seasons",
      "city": "Scottsdale",
      "country": "Arizona",
      "latitude": 33.4942,
      "longitude": -111.9261,
      "map_url": "https://www.google.com/maps/search/?api=1&query=33.4942,-111.9261",
      "needs_review": false
    },
    {
      "id": "jw-marriott-scottsdale-camelback-inn-resort-spa-scottsdale",
      "name": "JW Marriott Scottsdale Camelback Inn Resort & Spa",
      "brand": "JW HotelsMarriott",
      "city": "Scottsdale",
      "country": "Arizona",
      "needs_review": true,
      "latitude": 33.4942189,
      "longitude": -111.926018,
      "map_url": "https://www.google.com/maps/search/?api=1&query=33.4942189,-111.926018"
    },
    {
      "id": "omni-scottsdale-resort-spa-at-montelucia-scottsdale",
      "name": "Omni Scottsdale Resort & Spa at Montelucia",
      "brand": "Omni",
      "city": "Scottsdale",
      "country": "Arizona",
      "needs_review": true,
      "latitude": 33.4942189,
      "longitude": -111.926018,
      "map_url": "https://www.google.com/maps/search/?api=1&query=33.4942189,-111.926018"
    },
    {
      "id": "the-phoenician-a-luxury-collection-resort-scottsdale-scottsdale",
      "name": "The Phoenician, a Luxury Collection Resort, Scottsdale",
      "city": "Scottsdale",
      "country": "Arizona",
      "latitude": 33.4942,
      "longitude": -111.9261,
      "map_url": "https://www.google.com/maps/search/?api=1&query=33.4942,-111.9261",
      "needs_review": false
    },
    {
      "id": "amara-resort-and-spa-sedona",
      "name": "Amara Resort and Spa",
      "city": "Sedona",
      "country": "Arizona",
      "needs_review": true,
      "latitude": 34.8696757,
      "longitude": -111.7584365,
      "map_url": "https://www.google.com/maps/search/?api=1&query=34.8696757,-111.7584365"
    },
    {
      "id": "ambiente-a-landscape-hotel-sedona-sedona",
      "name": "Ambiente A Landscape Hotel, Sedona",
      "city": "Sedona",
      "country": "Arizona",
      "needs_review": true,
      "latitude": 34.8688613,
      "longitude": -111.7614394,
      "map_url": "https://www.google.com/maps/search/?api=1&query=34.8688613,-111.7614394"
    },
    {
      "id": "enchantment-resort-sedona",
      "name": "Enchantment Resort",
      "city": "Sedona",
      "country": "Arizona",
      "latitude": 34.8697,
      "longitude": -111.761,
      "map_url": "https://www.google.com/maps/search/?api=1&query=34.8697,-111.761",
      "needs_review": false
    },
    {
      "id": "l-auberge-de-sedona-sedona",
      "name": "L'Auberge de Sedona",
      "city": "Sedona",
      "country": "Arizona",
      "needs_review": true,
      "latitude": 34.8687,
      "longitude": -111.7596366,
      "map_url": "https://www.google.com/maps/search/?api=1&query=34.8687,-111.7596366"
    },
    {
      "id": "omni-tucson-national-resort-tucson",
      "name": "Omni Tucson National Resort",
      "brand": "Omni",
      "city": "Tucson",
      "country": "Arizona",
      "needs_review": true,
      "latitude": 32.3582756,
      "longitude": -111.0251666,
      "map_url": "https://www.google.com/maps/search/?api=1&query=32.3582756,-111.0251666"
    },
    {
      "id": "the-ritz-carlton-aruba-aruba",
      "name": "The Ritz-Carlton, Aruba",
      "brand": "Ritz-Carlton",
      "city": "Aruba",
      "country": "Aruba",
      "latitude": 12.5211,
      "longitude": -69.9683,
      "map_url": "https://www.google.com/maps/search/?api=1&query=12.5211,-69.9683",
      "needs_review": false
    },
    {
      "id": "hyatt-regency-aruba-resort-spa-casino-palm-beach",
      "name": "Hyatt Regency Aruba Resort Spa & Casino",
      "brand": "Hyatt Regency",
      "city": "Palm Beach",
      "country": "Aruba",
      "latitude": 12.5833,
      "longitude": -70.05,
      "map_url": "https://www.google.com/maps/search/?api=1&query=12.5833,-70.05",
      "needs_review": false
    },
    {
      "id": "w-brisbane-brisbane",
      "name": "W Brisbane",
      "brand": "W Hotels",
      "city": "Brisbane",
      "country": "Australia",
      "latitude": -27.4698,
      "longitude": 153.0251,
      "map_url": "https://www.google.com/maps/search/?api=1&query=-27.4698,153.0251",
      "needs_review": false
    },
    {
      "id": "shangri-la-the-marina-cairns-cairns",
      "name": "Shangri-La The Marina, Cairns",
      "brand": "Shangri-La",
      "city": "Cairns",
      "country": "Australia",
      "latitude": -16.9186,
      "longitude": 145.7781,
      "map_url": "https://www.google.com/maps/search/?api=1&query=-16.9186,145.7781",
      "needs_review": false
    },
    {
      "id": "mount-lofty-house-estate-adelaide-hills-crafers",
      "name": "Mount Lofty House & Estate Adelaide Hills",
      "city": "Crafers",
      "country": "Australia",
      "latitude": -34.9833,
      "longitude": 138.7167,
      "map_url": "https://www.google.com/maps/search/?api=1&query=-34.9833,138.7167",
      "needs_review": false
    },
    {
      "id": "sofitel-melbourne-on-collins-melbourne",
      "name": "Sofitel Melbourne On Collins",
      "brand": "Sofitel",
      "city": "Melbourne",
      "country": "Australia",
      "latitude": -37.8136,
      "longitude": 144.9631,
      "map_url": "https://www.google.com/maps/search/?api=1&query=-37.8136,144.9631",
      "needs_review": false
    },
    {
      "id": "the-langham-melbourne-melbourne",
      "name": "The Langham, Melbourne",
      "brand": "Langham",
      "city": "Melbourne",
      "country": "Australia",
      "latitude": -37.8136,
      "longitude": 144.9631,
      "map_url": "https://www.google.com/maps/search/?api=1&query=-37.8136,144.9631",
      "needs_review": false
    },
    {
      "id": "w-melbourne-melbourne",
      "name": "W Melbourne",
      "brand": "W Hotels",
      "city": "Melbourne",
      "region": "VIC",
      "country": "Australia",
      "latitude": -37.8136,
      "longitude": 144.9631,
      "map_url": "https://www.google.com/maps/search/?api=1&query=-37.8136,144.9631",
      "needs_review": false
    },
    {
      "id": "como-the-treasury-perth",
      "name": "COMO The Treasury",
      "brand": "COMO",
      "city": "Perth",
      "country": "Australia",
      "latitude": -31.9505,
      "longitude": 115.8605,
      "map_url": "https://www.google.com/maps/search/?api=1&query=-31.9505,115.8605",
      "needs_review": false
    },
    {
      "id": "the-ritz-carlton-perth-perth",
      "name": "The Ritz-Carlton, Perth",
      "brand": "Ritz-Carlton",
      "city": "Perth",
      "country": "Australia",
      "latitude": -31.9505,
      "longitude": 115.8605,
      "map_url": "https://www.google.com/maps/search/?api=1&query=-31.9505,115.8605",
      "needs_review": false
    },
    {
      "id": "four-seasons-hotel-sydney-sydney",
      "name": "Four Seasons Hotel Sydney",
      "brand": "Four Seasons",
      "city": "Sydney",
      "country": "Australia",
      "latitude": -33.8688,
      "longitude": 151.2093,
      "map_url": "https://www.google.com/maps/search/?api=1&query=-33.8688,151.2093",
      "needs_review": false
    },
    {
      "id": "intercontinental-sydney-by-ihg-sydney",
      "name": "InterContinental Sydney by IHG",
      "brand": "InterContinental",
      "city": "Sydney",
      "country": "Australia",
      "latitude": -33.8688,
      "longitude": 151.2093,
      "map_url": "https://www.google.com/maps/search/?api=1&query=-33.8688,151.2093",
      "needs_review": false
    },
    {
      "id": "kimpton-margot-sydney-by-ihg-sydney",
      "name": "Kimpton Margot Sydney by IHG",
      "brand": "Kimpton",
      "city": "Sydney",
      "country": "Australia",
      "latitude": -33.8688,
      "longitude": 151.2093,
      "map_url": "https://www.google.com/maps/search/?api=1&query=-33.8688,151.2093",
      "needs_review": false
    },
    {
      "id": "the-langham-sydney-sydney",
      "name": "The Langham, Sydney",
      "brand": "Langham",
      "city": "Sydney",
      "country": "Australia",
      "latitude": -33.8688,
      "longitude": 151.2093,
      "map_url": "https://www.google.com/maps/search/?api=1&query=-33.8688,151.2093",
      "needs_review": false
    },
    {
      "id": "shangri-la-sydney-the-rocks",
      "name": "Shangri-La Sydney",
      "brand": "Shangri-La",
      "city": "The Rocks",
      "country": "Australia",
      "latitude": -33.8598,
      "longitude": 151.209,
      "map_url": "https://www.google.com/maps/search/?api=1&query=-33.8598,151.209",
      "needs_review": false
    },
    {
      "id": "hotel-goldener-hirsch-a-luxury-collection-hotel-salzburg-salzburg",
      "name": "Hotel Goldener Hirsch, a Luxury Collection Hotel, Salzburg",
      "city": "Salzburg",
      "country": "Austria",
      "needs_review": true,
      "latitude": 47.7981346,
      "longitude": 13.0464806,
      "map_url": "https://www.google.com/maps/search/?api=1&query=47.7981346,13.0464806"
    },
    {
      "id": "anantara-palais-hansen-vienna-hotel-vienna",
      "name": "Anantara Palais Hansen Vienna Hotel",
      "brand": "Anantara",
      "city": "Vienna",
      "country": "Austria",
      "needs_review": true,
      "latitude": 48.2083537,
      "longitude": 16.3725042,
      "map_url": "https://www.google.com/maps/search/?api=1&query=48.2083537,16.3725042"
    },
    {
      "id": "hotel-imperial-a-luxury-collection-hotel-vienna-vienna",
      "name": "Hotel Imperial, a Luxury Collection Hotel, Vienna",
      "city": "Vienna",
      "country": "Austria",
      "needs_review": true,
      "latitude": 48.2083537,
      "longitude": 16.3725042,
      "map_url": "https://www.google.com/maps/search/?api=1&query=48.2083537,16.3725042"
    },
    {
      "id": "hotel-sacher-wien-vienna",
      "name": "Hotel Sacher Wien",
      "city": "Vienna",
      "country": "Austria",
      "needs_review": true,
      "latitude": 48.2040427,
      "longitude": 16.3697708,
      "map_url": "https://www.google.com/maps/search/?api=1&query=48.2040427,16.3697708"
    },
    {
      "id": "so-vienna-vienna",
      "name": "SO/ Vienna",
      "city": "Vienna",
      "country": "Austria",
      "needs_review": true,
      "latitude": 48.2129888,
      "longitude": 16.379938,
      "map_url": "https://www.google.com/maps/search/?api=1&query=48.2129888,16.379938"
    },
    {
      "id": "the-amauris-vienna-relais-ch-teaux-vienna",
      "name": "The Amauris Vienna - Relais & Châteaux",
      "city": "Vienna",
      "country": "Austria",
      "needs_review": true,
      "latitude": 48.2083537,
      "longitude": 16.3725042,
      "map_url": "https://www.google.com/maps/search/?api=1&query=48.2083537,16.3725042"
    },
    {
      "id": "the-ritz-carlton-vienna-vienna",
      "name": "The Ritz-Carlton, Vienna",
      "brand": "Ritz-Carlton",
      "city": "Vienna",
      "country": "Austria",
      "needs_review": true,
      "latitude": 48.2022505,
      "longitude": 16.3760702,
      "map_url": "https://www.google.com/maps/search/?api=1&query=48.2022505,16.3760702"
    },
    {
      "id": "almanac-palais-vienna-wien",
      "name": "Almanac Palais Vienna",
      "city": "Wien",
      "country": "Austria",
      "needs_review": true,
      "latitude": 48.2083537,
      "longitude": 16.3725042,
      "map_url": "https://www.google.com/maps/search/?api=1&query=48.2083537,16.3725042"
    },
    {
      "id": "thurnher-s-alpenhof-zuers-am-arlberg",
      "name": "Thurnher's Alpenhof",
      "city": "Zuers am Arlberg",
      "country": "Austria",
      "needs_review": true,
      "latitude": 47.17122,
      "longitude": 10.1631739,
      "map_url": "https://www.google.com/maps/search/?api=1&query=47.17122,10.1631739"
    },
    {
      "id": "four-seasons-hotel-baku-baku",
      "name": "Four Seasons Hotel Baku",
      "brand": "Four Seasons",
      "city": "Baku",
      "country": "Azerbaijan",
      "latitude": 40.4093,
      "longitude": 49.8671,
      "map_url": "https://www.google.com/maps/search/?api=1&query=40.4093,49.8671",
      "needs_review": false
    },
    {
      "id": "the-ocean-club-bahamas-a-four-seasons-resort-paradise-island",
      "name": "The Ocean Club, Bahamas",
      "city": "A Four Seasons Resort - Paradise Island",
      "country": "Bahamas",
      "latitude": 25.0867,
      "longitude": -77.31,
      "map_url": "https://www.google.com/maps/search/?api=1&query=25.0867,-77.31",
      "needs_review": false
    },
    {
      "id": "pink-sands-resort-dunmore-town",
      "name": "Pink Sands Resort",
      "city": "Dunmore Town",
      "country": "Bahamas",
      "latitude": 25.5017,
      "longitude": -76.635,
      "map_url": "https://www.google.com/maps/search/?api=1&query=25.5017,-76.635",
      "needs_review": false
    },
    {
      "id": "pink-sands-resort-eleuthera",
      "name": "Pink Sands Resort",
      "city": "Eleuthera",
      "country": "Bahamas",
      "needs_review": true,
      "latitude": 25.0884534,
      "longitude": -76.1345836,
      "map_url": "https://www.google.com/maps/search/?api=1&query=25.0884534,-76.1345836"
    },
    {
      "id": "sls-baha-mar-nassau",
      "name": "SLS Baha Mar",
      "city": "Nassau",
      "country": "Bahamas",
      "latitude": 25.0343,
      "longitude": -77.3963,
      "map_url": "https://www.google.com/maps/search/?api=1&query=25.0343,-77.3963",
      "needs_review": false
    },
    {
      "id": "the-cove-at-atlantis-paradise-island",
      "name": "The Cove at Atlantis",
      "city": "Paradise Island",
      "country": "Bahamas",
      "latitude": 25.0867,
      "longitude": -77.31,
      "map_url": "https://www.google.com/maps/search/?api=1&query=25.0867,-77.31",
      "needs_review": false
    },
    {
      "id": "the-ocean-club-bahamas-a-four-seasons-resort-paradise-island",
      "name": "The Ocean Club, Bahamas - A Four Seasons Resort",
      "brand": "Four Seasons",
      "city": "Paradise Island",
      "country": "Bahamas",
      "needs_review": false,
      "latitude": 25.0867,
      "longitude": -77.31,
      "map_url": "https://www.google.com/maps/search/?api=1&query=25.0867,-77.31"
    },
    {
      "id": "the-reef-at-atlantis-paradise-island",
      "name": "The Reef at Atlantis",
      "city": "Paradise Island",
      "country": "Bahamas",
      "latitude": 25.0867,
      "longitude": -77.31,
      "map_url": "https://www.google.com/maps/search/?api=1&query=25.0867,-77.31",
      "needs_review": false
    },
    {
      "id": "four-seasons-hotel-bahrain-bay-manama",
      "name": "Four Seasons Hotel Bahrain Bay",
      "brand": "Four Seasons",
      "city": "Manama",
      "country": "Bahrain",
      "latitude": 26.2285,
      "longitude": 50.586,
      "map_url": "https://www.google.com/maps/search/?api=1&query=26.2285,50.586",
      "needs_review": false
    },
    {
      "id": "mandapa-a-ritz-carlton-reserve-ubud",
      "name": "Mandapa, a Ritz-Carlton Reserve",
      "brand": "Ritz-Carlton",
      "city": "Ubud",
      "country": "Bali, Indonesia",
      "needs_review": false,
      "latitude": -8.4095,
      "longitude": 115.1889,
      "map_url": "https://www.google.com/maps/search/?api=1&query=-8.4095,115.1889"
    },
    {
      "id": "fairmont-royal-pavilion-st-james",
      "name": "Fairmont Royal Pavilion",
      "brand": "Fairmont",
      "city": "St. James",
      "country": "Barbados",
      "latitude": 13.1939,
      "longitude": -59.6339,
      "map_url": "https://www.google.com/maps/search/?api=1&query=13.1939,-59.6339",
      "needs_review": false
    },
    {
      "id": "corinthia-grand-hotel-astoria-brussels-brussels",
      "name": "Corinthia Grand Hotel Astoria, Brussels",
      "brand": "Corinthia",
      "city": "Brussels",
      "country": "Belgium",
      "needs_review": true,
      "latitude": 50.8465573,
      "longitude": 4.351697,
      "map_url": "https://www.google.com/maps/search/?api=1&query=50.8465573,4.351697"
    },
    {
      "id": "hotel-amigo-a-rocco-forte-hotel-brussels",
      "name": "Hotel Amigo, a Rocco Forte hotel",
      "brand": "Rocco Forte",
      "city": "Brussels",
      "country": "Belgium",
      "needs_review": true,
      "latitude": 50.8465573,
      "longitude": 4.351697,
      "map_url": "https://www.google.com/maps/search/?api=1&query=50.8465573,4.351697"
    },
    {
      "id": "le-louise-hotel-brussels-mgallery-brussels",
      "name": "Le Louise Hotel Brussels - MGallery",
      "city": "Brussels",
      "country": "Belgium",
      "needs_review": true,
      "latitude": 50.8465573,
      "longitude": 4.351697,
      "map_url": "https://www.google.com/maps/search/?api=1&query=50.8465573,4.351697"
    },
    {
      "id": "sofitel-brussels-europe-brussels",
      "name": "Sofitel Brussels Europe",
      "brand": "Sofitel",
      "city": "Brussels",
      "country": "Belgium",
      "latitude": 50.8503,
      "longitude": 4.3517,
      "map_url": "https://www.google.com/maps/search/?api=1&query=50.8503,4.3517",
      "needs_review": false
    },
    {
      "id": "itz-ana-resort-residences-placencia-placencia",
      "name": "Itz'ana Resort & Residences, Placencia",
      "city": "Placencia",
      "country": "Belize",
      "latitude": 16.5167,
      "longitude": -88.3667,
      "map_url": "https://www.google.com/maps/search/?api=1&query=16.5167,-88.3667",
      "needs_review": false
    },
    {
      "id": "itz-ana-resort-residences-placencia-placencia",
      "name": "Itz’ana Resort & Residences, Placencia",
      "city": "Placencia",
      "country": "Belize",
      "needs_review": false,
      "latitude": 16.5167,
      "longitude": -88.3667,
      "map_url": "https://www.google.com/maps/search/?api=1&query=16.5167,-88.3667"
    },
    {
      "id": "alaia-belize-autograph-collection-san-pedro-ambergris-caye",
      "name": "Alaia Belize, Autograph Collection",
      "city": "San Pedro Ambergris Caye",
      "country": "Belize",
      "latitude": 17.9214,
      "longitude": -87.9611,
      "map_url": "https://www.google.com/maps/search/?api=1&query=17.9214,-87.9611",
      "needs_review": false
    },
    {
      "id": "hamilton-princess-beach-club-a-fairmont-managed-hotel-pembroke-parish",
      "name": "Hamilton Princess & Beach Club",
      "city": "a Fairmont Managed Hotel - Pembroke Parish",
      "country": "Bermuda",
      "latitude": 32.2933,
      "longitude": -64.7833,
      "map_url": "https://www.google.com/maps/search/?api=1&query=32.2933,-64.7833",
      "needs_review": false
    },
    {
      "id": "hamilton-princess-beach-club-a-fairmont-managed-hotel-pembroke-parish",
      "name": "Hamilton Princess & Beach Club - a Fairmont Managed Hotel",
      "brand": "Fairmont",
      "city": "Pembroke Parish",
      "country": "Bermuda",
      "needs_review": false,
      "latitude": 32.2933,
      "longitude": -64.7833,
      "map_url": "https://www.google.com/maps/search/?api=1&query=32.2933,-64.7833"
    },
    {
      "id": "the-loren-at-pink-beach-tuckers-town",
      "name": "The Loren at Pink Beach",
      "city": "Tuckers Town",
      "country": "Bermuda",
      "latitude": 32.3333,
      "longitude": -64.7,
      "map_url": "https://www.google.com/maps/search/?api=1&query=32.3333,-64.7",
      "needs_review": false
    },
    {
      "id": "belmond-safaris-maun",
      "name": "Belmond Safaris",
      "brand": "Belmond",
      "city": "Maun",
      "country": "Botswana",
      "needs_review": true,
      "latitude": -19.9796252,
      "longitude": 23.4257853,
      "map_url": "https://www.google.com/maps/search/?api=1&query=-19.9796252,23.4257853"
    },
    {
      "id": "xigera-safari-lodge-maun",
      "name": "Xigera Safari Lodge",
      "city": "Maun",
      "country": "Botswana",
      "needs_review": true,
      "latitude": -19.9860951,
      "longitude": 23.4224352,
      "map_url": "https://www.google.com/maps/search/?api=1&query=-19.9860951,23.4224352"
    },
    {
      "id": "hotel-das-cataratas-a-belmond-hotel-iguassu-falls-foz-do-igua-u",
      "name": "Hotel das Cataratas, A Belmond Hotel, Iguassu Falls",
      "brand": "Belmond",
      "city": "Foz do Iguaçu",
      "country": "Brazil",
      "latitude": -25.5478,
      "longitude": -54.5882,
      "map_url": "https://www.google.com/maps/search/?api=1&query=-25.5478,-54.5882",
      "needs_review": false
    },
    {
      "id": "copacabana-palace-a-belmond-hotel-rio-de-janeiro-rio-de-janeiro",
      "name": "Copacabana Palace, A Belmond Hotel, Rio de Janeiro",
      "brand": "Belmond",
      "city": "Rio de Janeiro",
      "country": "Brazil",
      "latitude": -22.9068,
      "longitude": -43.1729,
      "map_url": "https://www.google.com/maps/search/?api=1&query=-22.9068,-43.1729",
      "needs_review": false
    },
    {
      "id": "fairmont-rio-de-janeiro-copacabana-rio-de-janeiro",
      "name": "Fairmont Rio de Janeiro Copacabana",
      "brand": "Fairmont",
      "city": "Rio de Janeiro",
      "country": "Brazil",
      "latitude": -22.9068,
      "longitude": -43.1729,
      "map_url": "https://www.google.com/maps/search/?api=1&query=-22.9068,-43.1729",
      "needs_review": false
    },
    {
      "id": "santa-teresa-hotel-rio-de-janeiro-mgallery-collection-rio-de-janeiro",
      "name": "Santa Teresa Hotel Rio de Janeiro - MGallery Collection",
      "city": "Rio de Janeiro",
      "country": "Brazil",
      "needs_review": true,
      "latitude": -22.9110137,
      "longitude": -43.2093727,
      "map_url": "https://www.google.com/maps/search/?api=1&query=-22.9110137,-43.2093727"
    },
    {
      "id": "intercontinental-s-o-paulo-by-ihg-s-o-paulo",
      "name": "InterContinental São Paulo by IHG",
      "brand": "InterContinental",
      "city": "São Paulo",
      "country": "Brazil",
      "latitude": -23.5505,
      "longitude": -46.6333,
      "map_url": "https://www.google.com/maps/search/?api=1&query=-23.5505,-46.6333",
      "needs_review": false
    },
    {
      "id": "palacio-tangara-oetker-hotels-s-o-paulo",
      "name": "Palacio Tangara, Oetker Hotels",
      "city": "São Paulo",
      "country": "Brazil",
      "needs_review": true,
      "latitude": -23.5506507,
      "longitude": -46.6333824,
      "map_url": "https://www.google.com/maps/search/?api=1&query=-23.5506507,-46.6333824"
    },
    {
      "id": "jw-marriott-anaheim-resort-anaheim",
      "name": "JW Marriott, Anaheim Resort",
      "brand": "JW HotelsMarriott",
      "city": "Anaheim",
      "country": "California",
      "needs_review": true,
      "latitude": 33.8044635,
      "longitude": -117.9107451,
      "map_url": "https://www.google.com/maps/search/?api=1&query=33.8044635,-117.9107451"
    },
    {
      "id": "the-westin-anaheim-resort-anaheim",
      "name": "The Westin Anaheim Resort",
      "city": "Anaheim",
      "country": "California",
      "needs_review": true,
      "latitude": 33.8021237,
      "longitude": -117.9224182,
      "map_url": "https://www.google.com/maps/search/?api=1&query=33.8021237,-117.9224182"
    },
    {
      "id": "beverly-wilshire-beverly-hills",
      "name": "Beverly Wilshire",
      "city": "Beverly Hills",
      "region": "A Four Seasons Hotel - Beverly Hills",
      "country": "California",
      "latitude": 34.0736,
      "longitude": -118.4004,
      "map_url": "https://www.google.com/maps/search/?api=1&query=34.0736,-118.4004",
      "needs_review": false
    },
    {
      "id": "l-ermitage-beverly-hills-beverly-hills",
      "name": "L'Ermitage Beverly Hills",
      "city": "Beverly Hills",
      "country": "California",
      "latitude": 34.0736,
      "longitude": -118.4004,
      "map_url": "https://www.google.com/maps/search/?api=1&query=34.0736,-118.4004",
      "needs_review": false
    },
    {
      "id": "the-beverly-hills-hotel-beverly-hills",
      "name": "The Beverly Hills Hotel",
      "city": "Beverly Hills",
      "country": "California",
      "needs_review": true,
      "latitude": 34.0817146,
      "longitude": -118.4137967,
      "map_url": "https://www.google.com/maps/search/?api=1&query=34.0817146,-118.4137967"
    },
    {
      "id": "the-maybourne-beverly-hills-maybourne-beverly-hills",
      "name": "The Maybourne Beverly Hills, Maybourne",
      "city": "Beverly Hills",
      "country": "California",
      "latitude": 34.0736,
      "longitude": -118.4004,
      "map_url": "https://www.google.com/maps/search/?api=1&query=34.0736,-118.4004",
      "needs_review": false
    },
    {
      "id": "the-peninsula-beverly-hills-beverly-hills",
      "name": "The Peninsula Beverly Hills",
      "brand": "Peninsula",
      "city": "Beverly Hills",
      "country": "California",
      "latitude": 34.0736,
      "longitude": -118.4004,
      "map_url": "https://www.google.com/maps/search/?api=1&query=34.0736,-118.4004",
      "needs_review": false
    },
    {
      "id": "waldorf-astoria-beverly-hills-beverly-hills",
      "name": "Waldorf Astoria Beverly Hills",
      "brand": "Waldorf Astoria",
      "city": "Beverly Hills",
      "country": "California",
      "latitude": 34.0736,
      "longitude": -118.4004,
      "map_url": "https://www.google.com/maps/search/?api=1&query=34.0736,-118.4004",
      "needs_review": false
    },
    {
      "id": "alila-ventana-big-sur-a-hyatt-luxury-resort-big-sur",
      "name": "Alila Ventana Big Sur, a Hyatt Luxury Resort",
      "city": "Big Sur",
      "country": "California",
      "latitude": 36.2704,
      "longitude": -121.8075,
      "map_url": "https://www.google.com/maps/search/?api=1&query=36.2704,-121.8075",
      "needs_review": false
    },
    {
      "id": "post-ranch-inn-big-sur",
      "name": "Post Ranch Inn",
      "city": "Big Sur",
      "country": "California",
      "latitude": 36.2704,
      "longitude": -121.8075,
      "map_url": "https://www.google.com/maps/search/?api=1&query=36.2704,-121.8075",
      "needs_review": false
    },
    {
      "id": "four-seasons-resort-and-residences-napa-valley-calistoga",
      "name": "Four Seasons Resort and Residences Napa Valley",
      "brand": "Four Seasons",
      "city": "Calistoga",
      "country": "California",
      "needs_review": true,
      "latitude": 38.5847929,
      "longitude": -122.567908,
      "map_url": "https://www.google.com/maps/search/?api=1&query=38.5847929,-122.567908"
    },
    {
      "id": "park-hyatt-aviara-resort-and-spa-carlsbad",
      "name": "Park Hyatt Aviara Resort And Spa",
      "brand": "Park Hyatt",
      "city": "Carlsbad",
      "country": "California",
      "needs_review": true,
      "latitude": 33.1580933,
      "longitude": -117.3505966,
      "map_url": "https://www.google.com/maps/search/?api=1&query=33.1580933,-117.3505966"
    },
    {
      "id": "carmel-valley-ranch-carmel",
      "name": "Carmel Valley Ranch",
      "city": "Carmel",
      "country": "California",
      "needs_review": true,
      "latitude": 36.510125,
      "longitude": -121.767349,
      "map_url": "https://www.google.com/maps/search/?api=1&query=36.510125,-121.767349"
    },
    {
      "id": "the-ritz-carlton-laguna-niguel-dana-point",
      "name": "The Ritz-Carlton, Laguna Niguel",
      "brand": "Ritz-Carlton",
      "city": "Dana Point",
      "country": "California",
      "needs_review": true,
      "latitude": 33.4669721,
      "longitude": -117.6981075,
      "map_url": "https://www.google.com/maps/search/?api=1&query=33.4669721,-117.6981075"
    },
    {
      "id": "l-auberge-del-mar-del-mar",
      "name": "L'Auberge Del Mar",
      "city": "Del Mar",
      "country": "California",
      "needs_review": true,
      "latitude": 32.960317,
      "longitude": -117.2659115,
      "map_url": "https://www.google.com/maps/search/?api=1&query=32.960317,-117.2659115"
    },
    {
      "id": "hotel-bel-air-dorchester-collection-los-angeles",
      "name": "Hotel Bel-Air",
      "city": "Dorchester Collection - Los Angeles",
      "country": "California",
      "latitude": 34.0522,
      "longitude": -118.2437,
      "map_url": "https://www.google.com/maps/search/?api=1&query=34.0522,-118.2437",
      "needs_review": false
    },
    {
      "id": "alila-marea-beach-resort-a-hyatt-luxury-resort-encinitas",
      "name": "Alila Marea Beach Resort, a Hyatt Luxury Resort",
      "city": "Encinitas",
      "country": "California",
      "needs_review": true,
      "latitude": 33.0369867,
      "longitude": -117.2919818,
      "map_url": "https://www.google.com/maps/search/?api=1&query=33.0369867,-117.2919818"
    },
    {
      "id": "farmhouse-inn-forestville",
      "name": "Farmhouse Inn",
      "city": "Forestville",
      "country": "California",
      "needs_review": true,
      "latitude": 38.4838305,
      "longitude": -122.8856606,
      "map_url": "https://www.google.com/maps/search/?api=1&query=38.4838305,-122.8856606"
    },
    {
      "id": "the-ritz-carlton-bacara-santa-barbara-goleta",
      "name": "The Ritz-Carlton Bacara, Santa Barbara",
      "brand": "Ritz-Carlton",
      "city": "Goleta",
      "country": "California",
      "needs_review": true,
      "latitude": 34.4358295,
      "longitude": -119.8276389,
      "map_url": "https://www.google.com/maps/search/?api=1&query=34.4358295,-119.8276389"
    },
    {
      "id": "dawn-ranch-guerneville",
      "name": "Dawn Ranch",
      "city": "Guerneville",
      "country": "California",
      "needs_review": true,
      "latitude": 38.501902,
      "longitude": -123.0053354,
      "map_url": "https://www.google.com/maps/search/?api=1&query=38.501902,-123.0053354"
    },
    {
      "id": "the-ritz-carlton-half-moon-bay-half-moon-bay",
      "name": "The Ritz-Carlton, Half Moon Bay",
      "brand": "Ritz-Carlton",
      "city": "Half Moon Bay",
      "country": "California",
      "needs_review": true,
      "latitude": 37.4353366,
      "longitude": -122.441445,
      "map_url": "https://www.google.com/maps/search/?api=1&query=37.4353366,-122.441445"
    },
    {
      "id": "27-north-healdsburg",
      "name": "27 North",
      "city": "Healdsburg",
      "country": "California",
      "needs_review": true,
      "latitude": 38.611924,
      "longitude": -122.871531,
      "map_url": "https://www.google.com/maps/search/?api=1&query=38.611924,-122.871531"
    },
    {
      "id": "montage-healdsburg-healdsburg",
      "name": "Montage Healdsburg",
      "brand": "Montage",
      "city": "Healdsburg",
      "country": "California",
      "needs_review": true,
      "latitude": 38.6483531,
      "longitude": -122.8569377,
      "map_url": "https://www.google.com/maps/search/?api=1&query=38.6483531,-122.8569377"
    },
    {
      "id": "the-madrona-healdsburg",
      "name": "The Madrona",
      "city": "Healdsburg",
      "country": "California",
      "needs_review": true,
      "latitude": 38.6106812,
      "longitude": -122.870138,
      "map_url": "https://www.google.com/maps/search/?api=1&query=38.6106812,-122.870138"
    },
    {
      "id": "hyatt-regency-huntington-beach-resort-and-spa-huntington-beach",
      "name": "Hyatt Regency Huntington Beach Resort and Spa",
      "brand": "Hyatt Regency",
      "city": "Huntington Beach",
      "country": "California",
      "needs_review": true,
      "latitude": 33.6783336,
      "longitude": -118.000016,
      "map_url": "https://www.google.com/maps/search/?api=1&query=33.6783336,-118.000016"
    },
    {
      "id": "pas-a-hotel-spa-huntington-beach",
      "name": "Paséa Hotel & Spa",
      "city": "Huntington Beach",
      "country": "California",
      "needs_review": true,
      "latitude": 33.6540808,
      "longitude": -117.9955978,
      "map_url": "https://www.google.com/maps/search/?api=1&query=33.6540808,-117.9955978"
    },
    {
      "id": "grand-hyatt-indian-wells-resort-villas-indian-wells",
      "name": "Grand Hyatt Indian Wells Resort & Villas",
      "brand": "Grand Hyatt",
      "city": "Indian Wells",
      "country": "California",
      "needs_review": true,
      "latitude": 33.7236823,
      "longitude": -116.3323113,
      "map_url": "https://www.google.com/maps/search/?api=1&query=33.7236823,-116.3323113"
    },
    {
      "id": "tommy-bahama-miramonte-resort-spa-indian-wells",
      "name": "Tommy Bahama Miramonte Resort & Spa",
      "city": "Indian Wells",
      "country": "California",
      "needs_review": true,
      "latitude": 33.7217965,
      "longitude": -116.338303,
      "map_url": "https://www.google.com/maps/search/?api=1&query=33.7217965,-116.338303"
    },
    {
      "id": "estancia-la-jolla-hotel-spa-la-jolla",
      "name": "Estancia La Jolla Hotel & Spa",
      "city": "La Jolla",
      "country": "California",
      "needs_review": true,
      "latitude": 32.8847459,
      "longitude": -117.2451566,
      "map_url": "https://www.google.com/maps/search/?api=1&query=32.8847459,-117.2451566"
    },
    {
      "id": "the-lodge-at-torrey-pines-la-jolla",
      "name": "The Lodge at Torrey Pines",
      "city": "La Jolla",
      "country": "California",
      "needs_review": true,
      "latitude": 32.9034778,
      "longitude": -117.2444737,
      "map_url": "https://www.google.com/maps/search/?api=1&query=32.9034778,-117.2444737"
    },
    {
      "id": "montage-laguna-beach-laguna-beach",
      "name": "Montage Laguna Beach",
      "brand": "Montage",
      "city": "Laguna Beach",
      "country": "California",
      "needs_review": true,
      "latitude": 33.5147278,
      "longitude": -117.7571244,
      "map_url": "https://www.google.com/maps/search/?api=1&query=33.5147278,-117.7571244"
    },
    {
      "id": "the-ranch-at-laguna-beach-laguna-beach",
      "name": "The Ranch at Laguna Beach",
      "city": "Laguna Beach",
      "country": "California",
      "needs_review": true,
      "latitude": 33.5129223,
      "longitude": -117.748146,
      "map_url": "https://www.google.com/maps/search/?api=1&query=33.5129223,-117.748146"
    },
    {
      "id": "downtown-l-a-proper-los-angeles",
      "name": "Downtown L.A. Proper",
      "city": "Los Angeles",
      "country": "California",
      "needs_review": true,
      "latitude": 34.0536909,
      "longitude": -118.242766,
      "map_url": "https://www.google.com/maps/search/?api=1&query=34.0536909,-118.242766"
    },
    {
      "id": "four-seasons-hotel-los-angeles-at-beverly-hills-los-angeles",
      "name": "Four Seasons Hotel Los Angeles at Beverly Hills",
      "brand": "Four Seasons",
      "city": "Los Angeles",
      "country": "California",
      "latitude": 34.0522,
      "longitude": -118.2437,
      "map_url": "https://www.google.com/maps/search/?api=1&query=34.0522,-118.2437",
      "needs_review": false
    },
    {
      "id": "hotel-per-la-autograph-collection-los-angeles",
      "name": "Hotel Per La, Autograph Collection",
      "city": "Los Angeles",
      "country": "California",
      "needs_review": true,
      "latitude": 34.0536909,
      "longitude": -118.242766,
      "map_url": "https://www.google.com/maps/search/?api=1&query=34.0536909,-118.242766"
    },
    {
      "id": "intercontinental-los-angeles-downtown-by-ihg-los-angeles",
      "name": "InterContinental Los Angeles Downtown by IHG",
      "brand": "InterContinental",
      "city": "Los Angeles",
      "country": "California",
      "needs_review": true,
      "latitude": 34.0536909,
      "longitude": -118.242766,
      "map_url": "https://www.google.com/maps/search/?api=1&query=34.0536909,-118.242766"
    },
    {
      "id": "sls-hotel-a-luxury-collection-hotel-beverly-hills-los-angeles",
      "name": "SLS Hotel, a Luxury Collection Hotel, Beverly Hills",
      "city": "Los Angeles",
      "country": "California",
      "latitude": 34.0522,
      "longitude": -118.2437,
      "map_url": "https://www.google.com/maps/search/?api=1&query=34.0522,-118.2437",
      "needs_review": false
    },
    {
      "id": "the-hollywood-roosevelt-los-angeles",
      "name": "The Hollywood Roosevelt",
      "city": "Los Angeles",
      "country": "California",
      "needs_review": true,
      "latitude": 34.1007055,
      "longitude": -118.3423628,
      "map_url": "https://www.google.com/maps/search/?api=1&query=34.1007055,-118.3423628"
    },
    {
      "id": "the-ritz-carlton-los-angeles-los-angeles",
      "name": "The Ritz-Carlton, Los Angeles",
      "brand": "Ritz-Carlton",
      "city": "Los Angeles",
      "country": "California",
      "latitude": 34.0522,
      "longitude": -118.2437,
      "map_url": "https://www.google.com/maps/search/?api=1&query=34.0522,-118.2437",
      "needs_review": false
    },
    {
      "id": "malibu-beach-inn-hotel-spa-malibu",
      "name": "Malibu Beach Inn Hotel & Spa",
      "city": "Malibu",
      "country": "California",
      "needs_review": true,
      "latitude": 34.035591,
      "longitude": -118.689423,
      "map_url": "https://www.google.com/maps/search/?api=1&query=34.035591,-118.689423"
    },
    {
      "id": "the-ranch-malibu-malibu",
      "name": "The Ranch Malibu",
      "city": "Malibu",
      "country": "California",
      "needs_review": true,
      "latitude": 34.0356852,
      "longitude": -118.6755544,
      "map_url": "https://www.google.com/maps/search/?api=1&query=34.0356852,-118.6755544"
    },
    {
      "id": "hotel-nia-autograph-collection-menlo-park",
      "name": "Hotel Nia, Autograph Collection",
      "city": "Menlo Park",
      "country": "California",
      "needs_review": true,
      "latitude": 37.4519671,
      "longitude": -122.177992,
      "map_url": "https://www.google.com/maps/search/?api=1&query=37.4519671,-122.177992"
    },
    {
      "id": "rosewood-miramar-beach-montecito",
      "name": "Rosewood Miramar Beach",
      "brand": "Rosewood",
      "city": "Montecito",
      "country": "California",
      "needs_review": true,
      "latitude": 34.4210367,
      "longitude": -119.6298774,
      "map_url": "https://www.google.com/maps/search/?api=1&query=34.4210367,-119.6298774"
    },
    {
      "id": "carneros-resort-and-spa-napa",
      "name": "Carneros Resort and Spa",
      "city": "Napa",
      "country": "California",
      "latitude": 38.2975,
      "longitude": -122.2869,
      "map_url": "https://www.google.com/maps/search/?api=1&query=38.2975,-122.2869",
      "needs_review": false
    },
    {
      "id": "lido-house-autograph-collection-newport-beach",
      "name": "Lido House, Autograph Collection",
      "city": "Newport Beach",
      "country": "California",
      "needs_review": true,
      "latitude": 33.6170092,
      "longitude": -117.9294401,
      "map_url": "https://www.google.com/maps/search/?api=1&query=33.6170092,-117.9294401"
    },
    {
      "id": "pendry-newport-beach-newport-beach",
      "name": "Pendry Newport Beach",
      "brand": "Pendry",
      "city": "Newport Beach",
      "country": "California",
      "latitude": 41.4901,
      "longitude": -71.3128,
      "map_url": "https://www.google.com/maps/search/?api=1&query=41.4901,-71.3128",
      "needs_review": false
    },
    {
      "id": "the-resort-at-pelican-hill-newport-coast",
      "name": "The Resort at Pelican Hill",
      "city": "Newport Coast",
      "country": "California",
      "latitude": 41.4901,
      "longitude": -71.3128,
      "map_url": "https://www.google.com/maps/search/?api=1&query=41.4901,-71.3128",
      "needs_review": false
    },
    {
      "id": "mission-pacific-beach-resort-oceanside",
      "name": "Mission Pacific Beach Resort",
      "city": "Oceanside",
      "country": "California",
      "needs_review": true,
      "latitude": 33.194587,
      "longitude": -117.3828887,
      "map_url": "https://www.google.com/maps/search/?api=1&query=33.194587,-117.3828887"
    },
    {
      "id": "the-seabird-resort-oceanside",
      "name": "The Seabird Resort",
      "city": "Oceanside",
      "country": "California",
      "needs_review": true,
      "latitude": 33.193638,
      "longitude": -117.3822073,
      "map_url": "https://www.google.com/maps/search/?api=1&query=33.193638,-117.3822073"
    },
    {
      "id": "ojai-valley-inn-ojai",
      "name": "Ojai Valley Inn",
      "city": "Ojai",
      "country": "California",
      "needs_review": true,
      "latitude": 34.4374825,
      "longitude": -119.2550624,
      "map_url": "https://www.google.com/maps/search/?api=1&query=34.4374825,-119.2550624"
    },
    {
      "id": "colony-palms-hotel-bungalows-palm-springs",
      "name": "Colony Palms Hotel & Bungalows",
      "city": "Palm Springs",
      "country": "California",
      "needs_review": true,
      "latitude": 33.8246269,
      "longitude": -116.540303,
      "map_url": "https://www.google.com/maps/search/?api=1&query=33.8246269,-116.540303"
    },
    {
      "id": "ingleside-estate-palm-springs",
      "name": "Ingleside Estate",
      "city": "Palm Springs",
      "country": "California",
      "needs_review": true,
      "latitude": 33.8246269,
      "longitude": -116.540303,
      "map_url": "https://www.google.com/maps/search/?api=1&query=33.8246269,-116.540303"
    },
    {
      "id": "parker-palm-springs-palm-springs",
      "name": "Parker Palm Springs",
      "city": "Palm Springs",
      "country": "California",
      "needs_review": true,
      "latitude": 33.7963167,
      "longitude": -116.4997232,
      "map_url": "https://www.google.com/maps/search/?api=1&query=33.7963167,-116.4997232"
    },
    {
      "id": "thompson-palm-springs-palm-springs",
      "name": "Thompson Palm Springs",
      "brand": "Thompson",
      "city": "Palm Springs",
      "country": "California",
      "needs_review": true,
      "latitude": 33.8246269,
      "longitude": -116.540303,
      "map_url": "https://www.google.com/maps/search/?api=1&query=33.8246269,-116.540303"
    },
    {
      "id": "four-seasons-hotel-silicon-valley-at-east-palo-alto-palo-alto",
      "name": "Four Seasons Hotel Silicon Valley at East Palo Alto",
      "brand": "Four Seasons",
      "city": "Palo Alto",
      "country": "California",
      "needs_review": true,
      "latitude": 37.4443293,
      "longitude": -122.1598465,
      "map_url": "https://www.google.com/maps/search/?api=1&query=37.4443293,-122.1598465"
    },
    {
      "id": "langham-huntington-pasadena-los-angeles-pasadena",
      "name": "Langham Huntington, Pasadena, Los Angeles",
      "brand": "Langham",
      "city": "Pasadena",
      "country": "California",
      "needs_review": true,
      "latitude": 34.1207531,
      "longitude": -118.1334227,
      "map_url": "https://www.google.com/maps/search/?api=1&query=34.1207531,-118.1334227"
    },
    {
      "id": "the-ritz-carlton-rancho-mirage-rancho-mirage",
      "name": "The Ritz-Carlton, Rancho Mirage",
      "brand": "Ritz-Carlton",
      "city": "Rancho Mirage",
      "country": "California",
      "needs_review": true,
      "latitude": 33.7676437,
      "longitude": -116.4569313,
      "map_url": "https://www.google.com/maps/search/?api=1&query=33.7676437,-116.4569313"
    },
    {
      "id": "rancho-valencia-resort-and-spa-rancho-santa-fe",
      "name": "Rancho Valencia Resort and Spa",
      "city": "Rancho Santa Fe",
      "country": "California",
      "needs_review": true,
      "latitude": 32.9911414,
      "longitude": -117.1862517,
      "map_url": "https://www.google.com/maps/search/?api=1&query=32.9911414,-117.1862517"
    },
    {
      "id": "kimpton-sawyer-hotel-by-ihg-sacramento",
      "name": "Kimpton Sawyer Hotel by IHG",
      "brand": "Kimpton",
      "city": "Sacramento",
      "country": "California",
      "needs_review": true,
      "latitude": 38.5810606,
      "longitude": -121.493895,
      "map_url": "https://www.google.com/maps/search/?api=1&query=38.5810606,-121.493895"
    },
    {
      "id": "alma-san-diego-downtown-a-tribute-portfolio-hotel-san-diego",
      "name": "Alma San Diego Downtown, a Tribute Portfolio Hotel",
      "city": "San Diego",
      "country": "California",
      "needs_review": true,
      "latitude": 32.7174202,
      "longitude": -117.162772,
      "map_url": "https://www.google.com/maps/search/?api=1&query=32.7174202,-117.162772"
    },
    {
      "id": "fairmont-grand-del-mar-san-diego",
      "name": "Fairmont Grand Del Mar",
      "brand": "Fairmont",
      "city": "San Diego",
      "country": "California",
      "latitude": 32.7157,
      "longitude": -117.1611,
      "map_url": "https://www.google.com/maps/search/?api=1&query=32.7157,-117.1611",
      "needs_review": false
    },
    {
      "id": "intercontinental-san-diego-by-ihg-san-diego",
      "name": "InterContinental San Diego by IHG",
      "brand": "InterContinental",
      "city": "San Diego",
      "country": "California",
      "needs_review": true,
      "latitude": 32.7174202,
      "longitude": -117.162772,
      "map_url": "https://www.google.com/maps/search/?api=1&query=32.7174202,-117.162772"
    },
    {
      "id": "kona-kai-san-diego-san-diego",
      "name": "Kona Kai San Diego",
      "city": "San Diego",
      "country": "California",
      "needs_review": true,
      "latitude": 33.1155126,
      "longitude": -117.1226867,
      "map_url": "https://www.google.com/maps/search/?api=1&query=33.1155126,-117.1226867"
    },
    {
      "id": "pendry-san-diego-san-diego",
      "name": "Pendry San Diego",
      "brand": "Pendry",
      "city": "San Diego",
      "country": "California",
      "latitude": 32.7157,
      "longitude": -117.1611,
      "map_url": "https://www.google.com/maps/search/?api=1&query=32.7157,-117.1611",
      "needs_review": false
    },
    {
      "id": "the-us-grant-a-luxury-collection-hotel-san-diego-san-diego",
      "name": "THE US GRANT, a Luxury Collection Hotel, San Diego",
      "city": "San Diego",
      "country": "California",
      "needs_review": true,
      "latitude": 32.7174202,
      "longitude": -117.162772,
      "map_url": "https://www.google.com/maps/search/?api=1&query=32.7174202,-117.162772"
    },
    {
      "id": "1-hotel-san-francisco-san-francisco",
      "name": "1 Hotel San Francisco",
      "brand": "1 Hotel",
      "city": "San Francisco",
      "country": "California",
      "latitude": 37.7749,
      "longitude": -122.4194,
      "map_url": "https://www.google.com/maps/search/?api=1&query=37.7749,-122.4194",
      "needs_review": false
    },
    {
      "id": "fairmont-san-francisco-san-francisco",
      "name": "Fairmont San Francisco",
      "brand": "Fairmont",
      "city": "San Francisco",
      "country": "California",
      "latitude": 37.7749,
      "longitude": -122.4194,
      "map_url": "https://www.google.com/maps/search/?api=1&query=37.7749,-122.4194",
      "needs_review": false
    },
    {
      "id": "four-seasons-hotel-san-francisco-san-francisco",
      "name": "Four Seasons Hotel San Francisco",
      "brand": "Four Seasons",
      "city": "San Francisco",
      "country": "California",
      "latitude": 37.7749,
      "longitude": -122.4194,
      "map_url": "https://www.google.com/maps/search/?api=1&query=37.7749,-122.4194",
      "needs_review": false
    },
    {
      "id": "four-seasons-hotel-san-francisco-at-embarcadero-san-francisco",
      "name": "Four Seasons Hotel San Francisco at Embarcadero",
      "brand": "Four Seasons",
      "city": "San Francisco",
      "country": "California",
      "needs_review": true,
      "latitude": 37.7932754,
      "longitude": -122.3963589,
      "map_url": "https://www.google.com/maps/search/?api=1&query=37.7932754,-122.3963589"
    },
    {
      "id": "hotel-zoe-san-francisco",
      "name": "Hotel Zoe",
      "city": "San Francisco",
      "country": "California",
      "needs_review": true,
      "latitude": 37.8061539,
      "longitude": -122.4141894,
      "map_url": "https://www.google.com/maps/search/?api=1&query=37.8061539,-122.4141894"
    },
    {
      "id": "palace-hotel-a-luxury-collection-hotel-san-francisco-san-francisco",
      "name": "Palace Hotel, a Luxury Collection Hotel, San Francisco",
      "city": "San Francisco",
      "country": "California",
      "needs_review": true,
      "latitude": 37.7932754,
      "longitude": -122.3963589,
      "map_url": "https://www.google.com/maps/search/?api=1&query=37.7932754,-122.3963589"
    },
    {
      "id": "san-francisco-proper-san-francisco",
      "name": "San Francisco Proper",
      "city": "San Francisco",
      "country": "California",
      "needs_review": true,
      "latitude": 37.7808481,
      "longitude": -122.4125251,
      "map_url": "https://www.google.com/maps/search/?api=1&query=37.7808481,-122.4125251"
    },
    {
      "id": "taj-campton-place-san-francisco",
      "name": "Taj Campton Place",
      "city": "San Francisco",
      "country": "California",
      "latitude": 37.7749,
      "longitude": -122.4194,
      "map_url": "https://www.google.com/maps/search/?api=1&query=37.7749,-122.4194",
      "needs_review": false
    },
    {
      "id": "the-ritz-carlton-san-francisco-san-francisco",
      "name": "The Ritz-Carlton, San Francisco",
      "brand": "Ritz-Carlton",
      "city": "San Francisco",
      "country": "California",
      "latitude": 37.7749,
      "longitude": -122.4194,
      "map_url": "https://www.google.com/maps/search/?api=1&query=37.7749,-122.4194",
      "needs_review": false
    },
    {
      "id": "the-st-regis-san-francisco-san-francisco",
      "name": "The St. Regis San Francisco",
      "brand": "St. Regis",
      "city": "San Francisco",
      "country": "California",
      "latitude": 37.7749,
      "longitude": -122.4194,
      "map_url": "https://www.google.com/maps/search/?api=1&query=37.7749,-122.4194",
      "needs_review": false
    },
    {
      "id": "cordevalle-san-martin",
      "name": "CordeValle",
      "city": "San Martin",
      "country": "California",
      "needs_review": true,
      "latitude": 37.0676914,
      "longitude": -121.6329551,
      "map_url": "https://www.google.com/maps/search/?api=1&query=37.0676914,-121.6329551"
    },
    {
      "id": "hotel-californian-santa-barbara",
      "name": "Hotel Californian",
      "city": "Santa Barbara",
      "country": "California",
      "needs_review": true,
      "latitude": 34.4221319,
      "longitude": -119.702667,
      "map_url": "https://www.google.com/maps/search/?api=1&query=34.4221319,-119.702667"
    },
    {
      "id": "kimpton-canary-hotel-by-ihg-santa-barbara",
      "name": "Kimpton Canary Hotel by IHG",
      "brand": "Kimpton",
      "city": "Santa Barbara",
      "country": "California",
      "needs_review": true,
      "latitude": 34.4221319,
      "longitude": -119.702667,
      "map_url": "https://www.google.com/maps/search/?api=1&query=34.4221319,-119.702667"
    },
    {
      "id": "san-ysidro-ranch-santa-barbara",
      "name": "San Ysidro Ranch",
      "city": "Santa Barbara",
      "country": "California",
      "latitude": 34.4208,
      "longitude": -119.6982,
      "map_url": "https://www.google.com/maps/search/?api=1&query=34.4208,-119.6982",
      "needs_review": false
    },
    {
      "id": "hotel-casa-del-mar-santa-monica",
      "name": "Hotel Casa del Mar",
      "city": "Santa Monica",
      "country": "California",
      "latitude": 34.0195,
      "longitude": -118.4912,
      "map_url": "https://www.google.com/maps/search/?api=1&query=34.0195,-118.4912",
      "needs_review": false
    },
    {
      "id": "regent-santa-monica-beach-santa-monica",
      "name": "Regent Santa Monica Beach",
      "city": "Santa Monica",
      "country": "California",
      "latitude": 34.0195,
      "longitude": -118.4912,
      "map_url": "https://www.google.com/maps/search/?api=1&query=34.0195,-118.4912",
      "needs_review": false
    },
    {
      "id": "santa-monica-proper-hotel-a-member-of-design-hotels-santa-monica",
      "name": "Santa Monica Proper Hotel, a Member of Design Hotels",
      "city": "Santa Monica",
      "country": "California",
      "needs_review": true,
      "latitude": 34.0194704,
      "longitude": -118.491227,
      "map_url": "https://www.google.com/maps/search/?api=1&query=34.0194704,-118.491227"
    },
    {
      "id": "shutters-on-the-beach-santa-monica",
      "name": "Shutters on the Beach",
      "city": "Santa Monica",
      "country": "California",
      "latitude": 34.0195,
      "longitude": -118.4912,
      "map_url": "https://www.google.com/maps/search/?api=1&query=34.0195,-118.4912",
      "needs_review": false
    },
    {
      "id": "the-pierside-santa-monica-santa-monica",
      "name": "The Pierside Santa Monica",
      "city": "Santa Monica",
      "country": "California",
      "needs_review": true,
      "latitude": 34.011901,
      "longitude": -118.4940066,
      "map_url": "https://www.google.com/maps/search/?api=1&query=34.011901,-118.4940066"
    },
    {
      "id": "viceroy-santa-monica-santa-monica",
      "name": "Viceroy Santa Monica",
      "brand": "Viceroy",
      "city": "Santa Monica",
      "country": "California",
      "needs_review": true,
      "latitude": 34.0081266,
      "longitude": -118.4904673,
      "map_url": "https://www.google.com/maps/search/?api=1&query=34.0081266,-118.4904673"
    },
    {
      "id": "cavallo-point-sausalito",
      "name": "Cavallo Point",
      "city": "Sausalito",
      "country": "California",
      "needs_review": true,
      "latitude": 37.8376806,
      "longitude": -122.4794021,
      "map_url": "https://www.google.com/maps/search/?api=1&query=37.8376806,-122.4794021"
    },
    {
      "id": "fairmont-sonoma-mission-inn-spa-sonoma",
      "name": "Fairmont Sonoma Mission Inn & Spa",
      "brand": "Fairmont",
      "city": "Sonoma",
      "country": "California",
      "needs_review": true,
      "latitude": 38.3131939,
      "longitude": -122.4825465,
      "map_url": "https://www.google.com/maps/search/?api=1&query=38.3131939,-122.4825465"
    },
    {
      "id": "macarthur-place-sonoma",
      "name": "Macarthur Place",
      "city": "Sonoma",
      "country": "California",
      "needs_review": true,
      "latitude": 38.2841066,
      "longitude": -122.4576608,
      "map_url": "https://www.google.com/maps/search/?api=1&query=38.2841066,-122.4576608"
    },
    {
      "id": "the-lodge-at-sonoma-resort-autograph-collection-sonoma",
      "name": "The Lodge at Sonoma Resort, Autograph Collection",
      "city": "Sonoma",
      "country": "California",
      "needs_review": true,
      "latitude": 38.5110803,
      "longitude": -122.8473388,
      "map_url": "https://www.google.com/maps/search/?api=1&query=38.5110803,-122.8473388"
    },
    {
      "id": "alila-napa-valley-a-hyatt-luxury-resort-st-helena",
      "name": "Alila Napa Valley, a Hyatt Luxury Resort",
      "city": "St Helena",
      "country": "California",
      "needs_review": true,
      "latitude": 38.5052288,
      "longitude": -122.470042,
      "map_url": "https://www.google.com/maps/search/?api=1&query=38.5052288,-122.470042"
    },
    {
      "id": "auberge-du-soleil-st-helena",
      "name": "Auberge Du Soleil",
      "city": "St. Helena",
      "country": "California",
      "needs_review": true,
      "latitude": 38.5052288,
      "longitude": -122.470042,
      "map_url": "https://www.google.com/maps/search/?api=1&query=38.5052288,-122.470042"
    },
    {
      "id": "meadowood-napa-valley-st-helena",
      "name": "Meadowood Napa Valley",
      "city": "St. Helena",
      "country": "California",
      "needs_review": true,
      "latitude": 38.5052288,
      "longitude": -122.470042,
      "map_url": "https://www.google.com/maps/search/?api=1&query=38.5052288,-122.470042"
    },
    {
      "id": "four-seasons-hotel-los-angeles-at-westlake-village-thousand-oaks",
      "name": "Four Seasons Hotel Los Angeles at Westlake Village",
      "brand": "Four Seasons",
      "city": "Thousand Oaks",
      "country": "California",
      "needs_review": true,
      "latitude": 34.1705609,
      "longitude": -118.8375937,
      "map_url": "https://www.google.com/maps/search/?api=1&query=34.1705609,-118.8375937"
    },
    {
      "id": "the-ritz-carlton-lake-tahoe-truckee",
      "name": "The Ritz-Carlton, Lake Tahoe",
      "brand": "Ritz-Carlton",
      "city": "Truckee",
      "country": "California",
      "needs_review": true,
      "latitude": 39.3279454,
      "longitude": -120.1835765,
      "map_url": "https://www.google.com/maps/search/?api=1&query=39.3279454,-120.1835765"
    },
    {
      "id": "1-hotel-west-hollywood-west-hollywood",
      "name": "1 Hotel West Hollywood",
      "brand": "1 Hotel",
      "city": "West Hollywood",
      "country": "California",
      "needs_review": true,
      "latitude": 34.0923014,
      "longitude": -118.3692894,
      "map_url": "https://www.google.com/maps/search/?api=1&query=34.0923014,-118.3692894"
    },
    {
      "id": "kimpton-la-peer-hotel-west-hollywood-by-ihg-west-hollywood",
      "name": "Kimpton La Peer Hotel West Hollywood by IHG",
      "brand": "Kimpton",
      "city": "West Hollywood",
      "country": "California",
      "needs_review": true,
      "latitude": 34.0923014,
      "longitude": -118.3692894,
      "map_url": "https://www.google.com/maps/search/?api=1&query=34.0923014,-118.3692894"
    },
    {
      "id": "mondrian-los-angeles-west-hollywood",
      "name": "Mondrian Los Angeles",
      "city": "West Hollywood",
      "country": "California",
      "needs_review": true,
      "latitude": 34.0943831,
      "longitude": -118.3743655,
      "map_url": "https://www.google.com/maps/search/?api=1&query=34.0943831,-118.3743655"
    },
    {
      "id": "sunset-marquis-west-hollywood",
      "name": "Sunset Marquis",
      "city": "West Hollywood",
      "country": "California",
      "needs_review": true,
      "latitude": 34.0921937,
      "longitude": -118.3775332,
      "map_url": "https://www.google.com/maps/search/?api=1&query=34.0921937,-118.3775332"
    },
    {
      "id": "sunset-tower-hotel-west-hollywood",
      "name": "Sunset Tower Hotel",
      "city": "West Hollywood",
      "country": "California",
      "needs_review": true,
      "latitude": 34.0950902,
      "longitude": -118.3721197,
      "map_url": "https://www.google.com/maps/search/?api=1&query=34.0950902,-118.3721197"
    },
    {
      "id": "the-sun-rose-west-hollywood-west-hollywood",
      "name": "The Sun Rose West Hollywood",
      "city": "West Hollywood",
      "country": "California",
      "needs_review": true,
      "latitude": 34.0948284,
      "longitude": -118.3734953,
      "map_url": "https://www.google.com/maps/search/?api=1&query=34.0948284,-118.3734953"
    },
    {
      "id": "the-west-hollywood-edition-west-hollywood",
      "name": "The West Hollywood EDITION",
      "city": "West Hollywood",
      "country": "California",
      "needs_review": true,
      "latitude": 34.09002,
      "longitude": -118.389146,
      "map_url": "https://www.google.com/maps/search/?api=1&query=34.09002,-118.389146"
    },
    {
      "id": "hotel-yountville-yountville",
      "name": "Hotel Yountville",
      "city": "Yountville",
      "country": "California",
      "needs_review": true,
      "latitude": 38.3998275,
      "longitude": -122.3601258,
      "map_url": "https://www.google.com/maps/search/?api=1&query=38.3998275,-122.3601258"
    },
    {
      "id": "the-estate-yountville-yountville",
      "name": "The Estate Yountville",
      "city": "Yountville",
      "country": "California",
      "needs_review": true,
      "latitude": 38.3998275,
      "longitude": -122.3601258,
      "map_url": "https://www.google.com/maps/search/?api=1&query=38.3998275,-122.3601258"
    },
    {
      "id": "six-senses-krabey-island-prey-nob",
      "name": "Six Senses Krabey Island",
      "brand": "Six Senses",
      "city": "Prey Nob",
      "country": "Cambodia",
      "needs_review": true,
      "latitude": 10.6524043,
      "longitude": 103.7958258,
      "map_url": "https://www.google.com/maps/search/?api=1&query=10.6524043,103.7958258"
    },
    {
      "id": "raffles-grand-hotel-d-angkor-siem-reap",
      "name": "Raffles Grand Hotel d'Angkor",
      "brand": "Raffles",
      "city": "Siem Reap",
      "country": "Cambodia",
      "latitude": 13.3671,
      "longitude": 103.8448,
      "map_url": "https://www.google.com/maps/search/?api=1&query=13.3671,103.8448",
      "needs_review": false
    },
    {
      "id": "fairmont-banff-springs-banff",
      "name": "Fairmont Banff Springs",
      "brand": "Fairmont",
      "city": "Banff",
      "country": "Canada",
      "latitude": 51.1784,
      "longitude": -115.5708,
      "map_url": "https://www.google.com/maps/search/?api=1&query=51.1784,-115.5708",
      "needs_review": false
    },
    {
      "id": "muir-a-luxury-collection-hotel-halifax-halifax",
      "name": "Muir, a Luxury Collection Hotel, Halifax",
      "city": "Halifax",
      "country": "Canada",
      "needs_review": true,
      "latitude": 44.648618,
      "longitude": -63.5859487,
      "map_url": "https://www.google.com/maps/search/?api=1&query=44.648618,-63.5859487"
    },
    {
      "id": "fairmont-jasper-park-lodge-jasper",
      "name": "Fairmont Jasper Park Lodge",
      "brand": "Fairmont",
      "city": "Jasper",
      "country": "Canada",
      "latitude": 52.8737,
      "longitude": -118.0814,
      "map_url": "https://www.google.com/maps/search/?api=1&query=52.8737,-118.0814",
      "needs_review": false
    },
    {
      "id": "fogo-island-inn-joe-batt-s-arm",
      "name": "Fogo Island Inn",
      "city": "Joe Batt's Arm",
      "country": "Canada",
      "needs_review": true,
      "latitude": 49.7305209,
      "longitude": -54.1783265,
      "map_url": "https://www.google.com/maps/search/?api=1&query=49.7305209,-54.1783265"
    },
    {
      "id": "fairmont-chateau-lake-louise-lake-louise",
      "name": "Fairmont Chateau Lake Louise",
      "brand": "Fairmont",
      "city": "Lake Louise",
      "country": "Canada",
      "latitude": 51.4254,
      "longitude": -116.1773,
      "map_url": "https://www.google.com/maps/search/?api=1&query=51.4254,-116.1773",
      "needs_review": false
    },
    {
      "id": "fairmont-the-queen-elizabeth-montreal",
      "name": "Fairmont The Queen Elizabeth",
      "brand": "Fairmont",
      "city": "Montreal",
      "country": "Canada",
      "needs_review": true,
      "latitude": 45.5002035,
      "longitude": -73.5684763,
      "map_url": "https://www.google.com/maps/search/?api=1&query=45.5002035,-73.5684763"
    },
    {
      "id": "four-seasons-hotel-montreal-montreal",
      "name": "Four Seasons Hotel Montreal",
      "brand": "Four Seasons",
      "city": "Montreal",
      "country": "Canada",
      "latitude": 45.5017,
      "longitude": -73.5673,
      "map_url": "https://www.google.com/maps/search/?api=1&query=45.5017,-73.5673",
      "needs_review": false
    },
    {
      "id": "sofitel-montreal-golden-mile-montreal",
      "name": "Sofitel Montreal Golden Mile",
      "brand": "Sofitel",
      "city": "Montreal",
      "country": "Canada",
      "needs_review": true,
      "latitude": 45.5031824,
      "longitude": -73.5698065,
      "map_url": "https://www.google.com/maps/search/?api=1&query=45.5031824,-73.5698065"
    },
    {
      "id": "the-ritz-carlton-montreal-montreal",
      "name": "The Ritz-Carlton, Montreal",
      "brand": "Ritz-Carlton",
      "city": "Montreal",
      "country": "Canada",
      "latitude": 45.5017,
      "longitude": -73.5673,
      "map_url": "https://www.google.com/maps/search/?api=1&query=45.5017,-73.5673",
      "needs_review": false
    },
    {
      "id": "vogue-hotel-montreal-downtown-curio-collection-by-hilton-montreal",
      "name": "Vogue Hotel Montreal Downtown, Curio Collection by Hilton",
      "city": "Montreal",
      "country": "Canada",
      "needs_review": true,
      "latitude": 45.5031824,
      "longitude": -73.5698065,
      "map_url": "https://www.google.com/maps/search/?api=1&query=45.5031824,-73.5698065"
    },
    {
      "id": "fairmont-chateau-laurier-ottawa",
      "name": "Fairmont Chateau Laurier",
      "brand": "Fairmont",
      "city": "Ottawa",
      "country": "Canada",
      "latitude": 45.4215,
      "longitude": -75.6972,
      "map_url": "https://www.google.com/maps/search/?api=1&query=45.4215,-75.6972",
      "needs_review": false
    },
    {
      "id": "auberge-saint-antoine-qu-bec-city",
      "name": "Auberge Saint-Antoine",
      "city": "Québec city",
      "country": "Canada",
      "needs_review": true,
      "latitude": 46.8144602,
      "longitude": -71.2018231,
      "map_url": "https://www.google.com/maps/search/?api=1&query=46.8144602,-71.2018231"
    },
    {
      "id": "fairmont-le-chateau-frontenac-qu-bec-city",
      "name": "Fairmont Le Chateau Frontenac",
      "brand": "Fairmont",
      "city": "Québec City",
      "country": "Canada",
      "latitude": 46.8139,
      "longitude": -71.208,
      "map_url": "https://www.google.com/maps/search/?api=1&query=46.8139,-71.208",
      "needs_review": false
    },
    {
      "id": "1-hotel-toronto-toronto",
      "name": "1 Hotel Toronto",
      "brand": "1 Hotel",
      "city": "Toronto",
      "country": "Canada",
      "latitude": 43.6532,
      "longitude": -79.3832,
      "map_url": "https://www.google.com/maps/search/?api=1&query=43.6532,-79.3832",
      "needs_review": false
    },
    {
      "id": "four-seasons-hotel-toronto-toronto",
      "name": "Four Seasons Hotel Toronto",
      "brand": "Four Seasons",
      "city": "Toronto",
      "country": "Canada",
      "latitude": 43.6532,
      "longitude": -79.3832,
      "map_url": "https://www.google.com/maps/search/?api=1&query=43.6532,-79.3832",
      "needs_review": false
    },
    {
      "id": "park-hyatt-toronto-toronto",
      "name": "Park Hyatt Toronto",
      "brand": "Park Hyatt",
      "city": "Toronto",
      "country": "Canada",
      "latitude": 43.6532,
      "longitude": -79.3832,
      "map_url": "https://www.google.com/maps/search/?api=1&query=43.6532,-79.3832",
      "needs_review": false
    },
    {
      "id": "shangri-la-toronto-toronto",
      "name": "Shangri-La, Toronto",
      "brand": "Shangri-La",
      "city": "Toronto",
      "country": "Canada",
      "needs_review": true,
      "latitude": 43.6492023,
      "longitude": -79.3862916,
      "map_url": "https://www.google.com/maps/search/?api=1&query=43.6492023,-79.3862916"
    },
    {
      "id": "the-ritz-carlton-toronto-toronto",
      "name": "The Ritz-Carlton, Toronto",
      "brand": "Ritz-Carlton",
      "city": "Toronto",
      "country": "Canada",
      "latitude": 43.6532,
      "longitude": -79.3832,
      "map_url": "https://www.google.com/maps/search/?api=1&query=43.6532,-79.3832",
      "needs_review": false
    },
    {
      "id": "the-st-regis-toronto-toronto",
      "name": "The St. Regis Toronto",
      "brand": "St. Regis",
      "city": "Toronto",
      "country": "Canada",
      "needs_review": true,
      "latitude": 43.6497715,
      "longitude": -79.3803057,
      "map_url": "https://www.google.com/maps/search/?api=1&query=43.6497715,-79.3803057"
    },
    {
      "id": "w-toronto-toronto",
      "name": "W Toronto",
      "brand": "W Hotels",
      "city": "Toronto",
      "country": "Canada",
      "needs_review": true,
      "latitude": 43.6671938,
      "longitude": -79.4629678,
      "map_url": "https://www.google.com/maps/search/?api=1&query=43.6671938,-79.4629678"
    },
    {
      "id": "fairmont-hotel-vancouver-vancouver",
      "name": "Fairmont Hotel Vancouver",
      "brand": "Fairmont",
      "city": "Vancouver",
      "country": "Canada",
      "latitude": 49.2827,
      "longitude": -123.1207,
      "map_url": "https://www.google.com/maps/search/?api=1&query=49.2827,-123.1207",
      "needs_review": false
    },
    {
      "id": "fairmont-pacific-rim-vancouver",
      "name": "Fairmont Pacific Rim",
      "brand": "Fairmont",
      "city": "Vancouver",
      "country": "Canada",
      "latitude": 49.2827,
      "longitude": -123.1207,
      "map_url": "https://www.google.com/maps/search/?api=1&query=49.2827,-123.1207",
      "needs_review": false
    },
    {
      "id": "fairmont-waterfront-vancouver",
      "name": "Fairmont Waterfront",
      "brand": "Fairmont",
      "city": "Vancouver",
      "country": "Canada",
      "needs_review": true,
      "latitude": 49.2872705,
      "longitude": -123.113634,
      "map_url": "https://www.google.com/maps/search/?api=1&query=49.2872705,-123.113634"
    },
    {
      "id": "shangri-la-vancouver-vancouver",
      "name": "Shangri-La Vancouver",
      "brand": "Shangri-La",
      "city": "Vancouver",
      "country": "Canada",
      "latitude": 49.2827,
      "longitude": -123.1207,
      "map_url": "https://www.google.com/maps/search/?api=1&query=49.2827,-123.1207",
      "needs_review": false
    },
    {
      "id": "fairmont-chateau-whistler-whistler",
      "name": "Fairmont Chateau Whistler",
      "brand": "Fairmont",
      "city": "Whistler",
      "country": "Canada",
      "latitude": 50.1163,
      "longitude": -122.9574,
      "map_url": "https://www.google.com/maps/search/?api=1&query=50.1163,-122.9574",
      "needs_review": false
    },
    {
      "id": "four-seasons-resort-whistler-whistler",
      "name": "Four Seasons Resort Whistler",
      "brand": "Four Seasons",
      "city": "Whistler",
      "country": "Canada",
      "latitude": 50.1163,
      "longitude": -122.9574,
      "map_url": "https://www.google.com/maps/search/?api=1&query=50.1163,-122.9574",
      "needs_review": false
    },
    {
      "id": "hotel-indigo-grand-cayman-cayman-islands",
      "name": "Hotel Indigo Grand Cayman",
      "city": "Cayman Islands",
      "country": "Cayman Islands",
      "needs_review": true,
      "latitude": 19.7031822,
      "longitude": -79.9174627,
      "map_url": "https://www.google.com/maps/search/?api=1&query=19.7031822,-79.9174627"
    },
    {
      "id": "the-ritz-carlton-grand-cayman-grand-cayman",
      "name": "The Ritz-Carlton, Grand Cayman",
      "brand": "Ritz-Carlton",
      "city": "Grand Cayman",
      "country": "Cayman Islands",
      "latitude": 19.3133,
      "longitude": -81.2546,
      "map_url": "https://www.google.com/maps/search/?api=1&query=19.3133,-81.2546",
      "needs_review": false
    },
    {
      "id": "kimpton-seafire-resort-spa-by-ihg-seven-mile-beach",
      "name": "Kimpton Seafire Resort + Spa by IHG",
      "brand": "Kimpton",
      "city": "Seven Mile Beach",
      "country": "Cayman Islands",
      "latitude": 19.35,
      "longitude": -81.3833,
      "map_url": "https://www.google.com/maps/search/?api=1&query=19.35,-81.3833",
      "needs_review": false
    },
    {
      "id": "the-ritz-carlton-santiago-santiago",
      "name": "The Ritz-Carlton, Santiago",
      "brand": "Ritz-Carlton",
      "city": "Santiago",
      "country": "Chile",
      "latitude": -33.4489,
      "longitude": -70.6693,
      "map_url": "https://www.google.com/maps/search/?api=1&query=-33.4489,-70.6693",
      "needs_review": false
    },
    {
      "id": "bulgari-hotel-beijing-beijing",
      "name": "Bulgari Hotel Beijing",
      "brand": "Bulgari",
      "city": "Beijing",
      "country": "China",
      "latitude": 39.9042,
      "longitude": 116.4074,
      "map_url": "https://www.google.com/maps/search/?api=1&query=39.9042,116.4074",
      "needs_review": false
    },
    {
      "id": "four-seasons-hotel-beijing-beijing",
      "name": "Four Seasons Hotel Beijing",
      "brand": "Four Seasons",
      "city": "Beijing",
      "country": "China",
      "latitude": 39.9042,
      "longitude": 116.4074,
      "map_url": "https://www.google.com/maps/search/?api=1&query=39.9042,116.4074",
      "needs_review": false
    },
    {
      "id": "the-peninsula-beijing-beijing",
      "name": "The Peninsula Beijing",
      "brand": "Peninsula",
      "city": "Beijing",
      "country": "China",
      "latitude": 39.9042,
      "longitude": 116.4074,
      "map_url": "https://www.google.com/maps/search/?api=1&query=39.9042,116.4074",
      "needs_review": false
    },
    {
      "id": "four-seasons-hotel-hangzhou-at-hangzhou-centre-hangzhou",
      "name": "Four Seasons Hotel Hangzhou At Hangzhou Centre",
      "brand": "Four Seasons",
      "city": "Hangzhou",
      "country": "China",
      "needs_review": true,
      "latitude": 30.2489634,
      "longitude": 120.2052342,
      "map_url": "https://www.google.com/maps/search/?api=1&query=30.2489634,120.2052342"
    },
    {
      "id": "four-seasons-hotel-hangzhou-at-west-lake-hangzhou",
      "name": "Four Seasons Hotel Hangzhou at West Lake",
      "brand": "Four Seasons",
      "city": "Hangzhou",
      "country": "China",
      "needs_review": true,
      "latitude": 30.2489634,
      "longitude": 120.2052342,
      "map_url": "https://www.google.com/maps/search/?api=1&query=30.2489634,120.2052342"
    },
    {
      "id": "rissai-valley-a-ritz-carlton-reserve-jiuzhaigou",
      "name": "Rissai Valley, a Ritz-Carlton Reserve",
      "brand": "Ritz-Carlton",
      "city": "Jiuzhaigou",
      "country": "China",
      "needs_review": true,
      "latitude": 33.3071597,
      "longitude": 103.9325993,
      "map_url": "https://www.google.com/maps/search/?api=1&query=33.3071597,103.9325993"
    },
    {
      "id": "bulgari-hotel-shanghai-shanghai",
      "name": "Bulgari Hotel Shanghai",
      "brand": "Bulgari",
      "city": "Shanghai",
      "country": "China",
      "latitude": 31.2304,
      "longitude": 121.4737,
      "map_url": "https://www.google.com/maps/search/?api=1&query=31.2304,121.4737",
      "needs_review": false
    },
    {
      "id": "four-seasons-hotel-shanghai-shanghai",
      "name": "Four Seasons Hotel Shanghai",
      "brand": "Four Seasons",
      "city": "Shanghai",
      "country": "China",
      "latitude": 31.2304,
      "longitude": 121.4737,
      "map_url": "https://www.google.com/maps/search/?api=1&query=31.2304,121.4737",
      "needs_review": false
    },
    {
      "id": "kimpton-qiantan-shanghai-by-ihg-shanghai",
      "name": "Kimpton Qiantan Shanghai by IHG",
      "brand": "Kimpton",
      "city": "Shanghai",
      "country": "China",
      "needs_review": true,
      "latitude": 31.2312707,
      "longitude": 121.4700152,
      "map_url": "https://www.google.com/maps/search/?api=1&query=31.2312707,121.4700152"
    },
    {
      "id": "the-middle-house-shanghai",
      "name": "The Middle House",
      "city": "Shanghai",
      "country": "China",
      "needs_review": true,
      "latitude": 31.2318339,
      "longitude": 121.4582093,
      "map_url": "https://www.google.com/maps/search/?api=1&query=31.2318339,121.4582093"
    },
    {
      "id": "the-peninsula-shanghai-shanghai",
      "name": "The Peninsula Shanghai",
      "brand": "Peninsula",
      "city": "Shanghai",
      "country": "China",
      "latitude": 31.2304,
      "longitude": 121.4737,
      "map_url": "https://www.google.com/maps/search/?api=1&query=31.2304,121.4737",
      "needs_review": false
    },
    {
      "id": "the-shanghai-edition-shanghai",
      "name": "The Shanghai EDITION",
      "city": "Shanghai",
      "country": "China",
      "needs_review": true,
      "latitude": 31.2312707,
      "longitude": 121.4700152,
      "map_url": "https://www.google.com/maps/search/?api=1&query=31.2312707,121.4700152"
    },
    {
      "id": "four-seasons-hotel-shenzhen-shenzhen",
      "name": "Four Seasons Hotel Shenzhen",
      "brand": "Four Seasons",
      "city": "Shenzhen",
      "country": "China",
      "latitude": 22.5431,
      "longitude": 114.0579,
      "map_url": "https://www.google.com/maps/search/?api=1&query=22.5431,114.0579",
      "needs_review": false
    },
    {
      "id": "the-langham-shenzhen-shenzhen",
      "name": "The Langham, Shenzhen",
      "brand": "Langham",
      "city": "Shenzhen",
      "country": "China",
      "needs_review": true,
      "latitude": 22.5390891,
      "longitude": 114.0155634,
      "map_url": "https://www.google.com/maps/search/?api=1&query=22.5390891,114.0155634"
    },
    {
      "id": "four-seasons-hotel-suzhou-suzhou",
      "name": "Four Seasons Hotel Suzhou",
      "brand": "Four Seasons",
      "city": "Suzhou",
      "country": "China",
      "needs_review": true,
      "latitude": 31.311123,
      "longitude": 120.6212881,
      "map_url": "https://www.google.com/maps/search/?api=1&query=31.311123,120.6212881"
    },
    {
      "id": "four-seasons-hotel-tianjin-tianjin",
      "name": "Four Seasons Hotel Tianjin",
      "brand": "Four Seasons",
      "city": "Tianjin",
      "country": "China",
      "needs_review": true,
      "latitude": 39.3032619,
      "longitude": 117.4163641,
      "map_url": "https://www.google.com/maps/search/?api=1&query=39.3032619,117.4163641"
    },
    {
      "id": "intercontinental-xiangyang-by-ihg-xiangyang",
      "name": "Intercontinental Xiangyang by IHG",
      "city": "Xiangyang",
      "country": "China",
      "needs_review": true,
      "latitude": 32.010998,
      "longitude": 112.1163785,
      "map_url": "https://www.google.com/maps/search/?api=1&query=32.010998,112.1163785"
    },
    {
      "id": "the-lodge-at-ashford-castle-cong",
      "name": "The Lodge at Ashford Castle",
      "city": "Cong",
      "country": "Co. Mayo, Ireland",
      "needs_review": true,
      "latitude": 53.5349454,
      "longitude": -9.2745241,
      "map_url": "https://www.google.com/maps/search/?api=1&query=53.5349454,-9.2745241"
    },
    {
      "id": "four-seasons-hotel-casa-medina-bogot-bogota",
      "name": "Four Seasons Hotel Casa Medina, Bogotá",
      "brand": "Four Seasons",
      "city": "Bogota",
      "country": "Colombia",
      "needs_review": true,
      "latitude": 4.6533817,
      "longitude": -74.0836331,
      "map_url": "https://www.google.com/maps/search/?api=1&query=4.6533817,-74.0836331"
    },
    {
      "id": "four-seasons-hotel-bogota-bogot",
      "name": "Four Seasons Hotel Bogota",
      "brand": "Four Seasons",
      "city": "Bogotá",
      "country": "Colombia",
      "latitude": 4.711,
      "longitude": -74.0721,
      "map_url": "https://www.google.com/maps/search/?api=1&query=4.711,-74.0721",
      "needs_review": false
    },
    {
      "id": "casa-pestagua-relais-ch-teaux-cartagena",
      "name": "Casa Pestagua Relais Châteaux",
      "city": "Cartagena",
      "country": "Colombia",
      "needs_review": true,
      "latitude": 10.4265566,
      "longitude": -75.5441671,
      "map_url": "https://www.google.com/maps/search/?api=1&query=10.4265566,-75.5441671"
    },
    {
      "id": "intercontinental-cartagena-de-indias-by-ihg-cartagena",
      "name": "InterContinental Cartagena De Indias by IHG",
      "brand": "InterContinental",
      "city": "Cartagena",
      "country": "Colombia",
      "latitude": 10.391,
      "longitude": -75.4794,
      "map_url": "https://www.google.com/maps/search/?api=1&query=10.391,-75.4794",
      "needs_review": false
    },
    {
      "id": "sofitel-legend-santa-clara-cartagena-cartagena",
      "name": "Sofitel Legend Santa Clara Cartagena",
      "brand": "Sofitel",
      "city": "Cartagena",
      "country": "Colombia",
      "latitude": 10.391,
      "longitude": -75.4794,
      "map_url": "https://www.google.com/maps/search/?api=1&query=10.391,-75.4794",
      "needs_review": false
    },
    {
      "id": "sofitel-bar-cartagena-beach-resort-cartagena-de-indias",
      "name": "Sofitel Barú Cartagena Beach Resort",
      "brand": "Sofitel",
      "city": "Cartagena de Indias",
      "country": "Colombia",
      "needs_review": true,
      "latitude": 10.4265566,
      "longitude": -75.5441671,
      "map_url": "https://www.google.com/maps/search/?api=1&query=10.4265566,-75.5441671"
    },
    {
      "id": "limelight-hotel-aspen-aspen",
      "name": "Limelight Hotel Aspen",
      "city": "Aspen",
      "country": "Colorado",
      "needs_review": true,
      "latitude": 39.1890406,
      "longitude": -106.8213656,
      "map_url": "https://www.google.com/maps/search/?api=1&query=39.1890406,-106.8213656"
    },
    {
      "id": "mollie-aspen-aspen",
      "name": "MOLLIE Aspen",
      "city": "Aspen",
      "country": "Colorado",
      "needs_review": true,
      "latitude": 39.1924322,
      "longitude": -106.808842,
      "map_url": "https://www.google.com/maps/search/?api=1&query=39.1924322,-106.808842"
    },
    {
      "id": "residences-at-the-little-nell-aspen",
      "name": "Residences at the Little Nell",
      "city": "Aspen",
      "country": "Colorado",
      "needs_review": true,
      "latitude": 39.1911128,
      "longitude": -106.82356,
      "map_url": "https://www.google.com/maps/search/?api=1&query=39.1911128,-106.82356"
    },
    {
      "id": "the-little-nell-aspen",
      "name": "The Little Nell",
      "city": "Aspen",
      "country": "Colorado",
      "latitude": 39.1911,
      "longitude": -106.8175,
      "map_url": "https://www.google.com/maps/search/?api=1&query=39.1911,-106.8175",
      "needs_review": false
    },
    {
      "id": "the-sky-residences-at-w-aspen-aspen",
      "name": "The Sky Residences at W Aspen",
      "brand": "W Hotels",
      "city": "Aspen",
      "country": "Colorado",
      "needs_review": true,
      "latitude": 39.1911128,
      "longitude": -106.82356,
      "map_url": "https://www.google.com/maps/search/?api=1&query=39.1911128,-106.82356"
    },
    {
      "id": "the-st-regis-aspen-resort-aspen",
      "name": "The St. Regis Aspen Resort",
      "brand": "St. Regis",
      "city": "Aspen",
      "country": "Colorado",
      "latitude": 39.1911,
      "longitude": -106.8175,
      "map_url": "https://www.google.com/maps/search/?api=1&query=39.1911,-106.8175",
      "needs_review": false
    },
    {
      "id": "w-aspen-aspen",
      "name": "W Aspen",
      "brand": "W Hotels",
      "city": "Aspen",
      "country": "Colorado",
      "latitude": 39.1911,
      "longitude": -106.8175,
      "map_url": "https://www.google.com/maps/search/?api=1&query=39.1911,-106.8175",
      "needs_review": false
    },
    {
      "id": "the-ritz-carlton-bachelor-gulch-avon",
      "name": "The Ritz-Carlton, Bachelor Gulch",
      "brand": "Ritz-Carlton",
      "city": "Avon",
      "country": "Colorado",
      "needs_review": true,
      "latitude": 39.6232663,
      "longitude": -106.5416488,
      "map_url": "https://www.google.com/maps/search/?api=1&query=39.6232663,-106.5416488"
    },
    {
      "id": "park-hyatt-beaver-creek-resort-spa-beaver-creek",
      "name": "Park Hyatt Beaver Creek Resort & Spa",
      "brand": "Park Hyatt",
      "city": "Beaver Creek",
      "country": "Colorado",
      "needs_review": true,
      "latitude": 39.6048786,
      "longitude": -106.5150017,
      "map_url": "https://www.google.com/maps/search/?api=1&query=39.6048786,-106.5150017"
    },
    {
      "id": "hotel-polaris-colorado-springs",
      "name": "Hotel Polaris",
      "city": "Colorado Springs",
      "country": "Colorado",
      "needs_review": true,
      "latitude": 39.023768,
      "longitude": -104.8386777,
      "map_url": "https://www.google.com/maps/search/?api=1&query=39.023768,-104.8386777"
    },
    {
      "id": "four-seasons-hotel-denver-denver",
      "name": "Four Seasons Hotel Denver",
      "brand": "Four Seasons",
      "city": "Denver",
      "country": "Colorado",
      "latitude": 39.7392,
      "longitude": -104.9903,
      "map_url": "https://www.google.com/maps/search/?api=1&query=39.7392,-104.9903",
      "needs_review": false
    },
    {
      "id": "hotel-clio-a-luxury-collection-hotel-denver-cherry-creek-denver",
      "name": "Hotel Clio, a Luxury Collection Hotel, Denver Cherry Creek",
      "city": "Denver",
      "country": "Colorado",
      "needs_review": true,
      "latitude": 39.7392364,
      "longitude": -104.984862,
      "map_url": "https://www.google.com/maps/search/?api=1&query=39.7392364,-104.984862"
    },
    {
      "id": "kimpton-claret-hotel-by-ihg-denver",
      "name": "Kimpton Claret Hotel by IHG",
      "brand": "Kimpton",
      "city": "Denver",
      "country": "Colorado",
      "needs_review": true,
      "latitude": 39.7392364,
      "longitude": -104.984862,
      "map_url": "https://www.google.com/maps/search/?api=1&query=39.7392364,-104.984862"
    },
    {
      "id": "limelight-hotel-denver-denver",
      "name": "Limelight Hotel Denver",
      "city": "Denver",
      "country": "Colorado",
      "needs_review": true,
      "latitude": 39.7531891,
      "longitude": -105.001955,
      "map_url": "https://www.google.com/maps/search/?api=1&query=39.7531891,-105.001955"
    },
    {
      "id": "the-crawford-hotel-denver",
      "name": "The Crawford Hotel",
      "city": "Denver",
      "country": "Colorado",
      "needs_review": true,
      "latitude": 39.75334,
      "longitude": -105.0000554,
      "map_url": "https://www.google.com/maps/search/?api=1&query=39.75334,-105.0000554"
    },
    {
      "id": "the-rally-hotel-at-mcgregor-square-denver",
      "name": "The Rally Hotel at McGregor Square",
      "city": "Denver",
      "country": "Colorado",
      "needs_review": true,
      "latitude": 39.7552912,
      "longitude": -104.9962404,
      "map_url": "https://www.google.com/maps/search/?api=1&query=39.7552912,-104.9962404"
    },
    {
      "id": "the-ritz-carlton-denver-denver",
      "name": "The Ritz-Carlton, Denver",
      "brand": "Ritz-Carlton",
      "city": "Denver",
      "country": "Colorado",
      "latitude": 39.7392,
      "longitude": -104.9903,
      "map_url": "https://www.google.com/maps/search/?api=1&query=39.7392,-104.9903",
      "needs_review": false
    },
    {
      "id": "thompson-denver-denver",
      "name": "Thompson Denver",
      "brand": "Thompson",
      "city": "Denver",
      "country": "Colorado",
      "latitude": 39.7392,
      "longitude": -104.9903,
      "map_url": "https://www.google.com/maps/search/?api=1&query=39.7392,-104.9903",
      "needs_review": false
    },
    {
      "id": "dunton-hot-springs-dolores",
      "name": "Dunton Hot Springs",
      "city": "Dolores",
      "country": "Colorado",
      "needs_review": true,
      "latitude": 37.7524811,
      "longitude": -108.4596087,
      "map_url": "https://www.google.com/maps/search/?api=1&query=37.7524811,-108.4596087"
    },
    {
      "id": "limelight-hotel-snowmass-snowmass-village",
      "name": "Limelight Hotel Snowmass",
      "city": "Snowmass Village",
      "country": "Colorado",
      "needs_review": true,
      "latitude": 39.2087848,
      "longitude": -106.9474514,
      "map_url": "https://www.google.com/maps/search/?api=1&query=39.2087848,-106.9474514"
    },
    {
      "id": "viceroy-snowmass-snowmass-village",
      "name": "Viceroy Snowmass",
      "brand": "Viceroy",
      "city": "Snowmass Village",
      "country": "Colorado",
      "needs_review": true,
      "latitude": 39.2096564,
      "longitude": -106.9449339,
      "map_url": "https://www.google.com/maps/search/?api=1&query=39.2096564,-106.9449339"
    },
    {
      "id": "viewline-resort-snowmass-autograph-collection-snowmass-village",
      "name": "Viewline Resort Snowmass, Autograph Collection",
      "city": "Snowmass Village",
      "country": "Colorado",
      "needs_review": true,
      "latitude": 39.2130418,
      "longitude": -106.9378207,
      "map_url": "https://www.google.com/maps/search/?api=1&query=39.2130418,-106.9378207"
    },
    {
      "id": "lumiere-by-dunton-telluride",
      "name": "Lumiere by Dunton",
      "city": "Telluride",
      "country": "Colorado",
      "needs_review": true,
      "latitude": 37.9374939,
      "longitude": -107.812285,
      "map_url": "https://www.google.com/maps/search/?api=1&query=37.9374939,-107.812285"
    },
    {
      "id": "four-seasons-resort-vail-vail",
      "name": "Four Seasons Resort Vail",
      "brand": "Four Seasons",
      "city": "Vail",
      "country": "Colorado",
      "latitude": 39.6403,
      "longitude": -106.3742,
      "map_url": "https://www.google.com/maps/search/?api=1&query=39.6403,-106.3742",
      "needs_review": false
    },
    {
      "id": "grand-hyatt-vail-vail",
      "name": "Grand Hyatt Vail",
      "brand": "Grand Hyatt",
      "city": "Vail",
      "country": "Colorado",
      "latitude": 39.6403,
      "longitude": -106.3742,
      "map_url": "https://www.google.com/maps/search/?api=1&query=39.6403,-106.3742",
      "needs_review": false
    },
    {
      "id": "sonnenalp-vail",
      "name": "Sonnenalp",
      "city": "Vail",
      "country": "Colorado",
      "needs_review": true,
      "latitude": 39.6415099,
      "longitude": -106.3774691,
      "map_url": "https://www.google.com/maps/search/?api=1&query=39.6415099,-106.3774691"
    },
    {
      "id": "the-hythe-a-luxury-collection-resort-vail-vail",
      "name": "The Hythe, a Luxury Collection Resort, Vail",
      "city": "Vail",
      "country": "Colorado",
      "needs_review": true,
      "latitude": 39.6438028,
      "longitude": -106.3888231,
      "map_url": "https://www.google.com/maps/search/?api=1&query=39.6438028,-106.3888231"
    },
    {
      "id": "the-sebastian-vail-vail",
      "name": "The Sebastian - Vail",
      "city": "Vail",
      "country": "Colorado",
      "needs_review": true,
      "latitude": 39.6426896,
      "longitude": -106.3778384,
      "map_url": "https://www.google.com/maps/search/?api=1&query=39.6426896,-106.3778384"
    },
    {
      "id": "vail-residences-at-cascade-village-vail",
      "name": "Vail Residences at Cascade Village",
      "city": "Vail",
      "country": "Colorado",
      "needs_review": true,
      "latitude": 39.6360064,
      "longitude": -106.4056308,
      "map_url": "https://www.google.com/maps/search/?api=1&query=39.6360064,-106.4056308"
    },
    {
      "id": "thompson-denver-denver",
      "name": "Thompson Denver",
      "brand": "Thompson",
      "city": "Denver",
      "country": "Colorado, Colorado",
      "needs_review": false,
      "latitude": 39.7392,
      "longitude": -104.9903,
      "map_url": "https://www.google.com/maps/search/?api=1&query=39.7392,-104.9903"
    },
    {
      "id": "winvian-farm-morris",
      "name": "Winvian Farm",
      "city": "Morris",
      "country": "Connecticut",
      "needs_review": true,
      "latitude": 41.6842633,
      "longitude": -73.1962245,
      "map_url": "https://www.google.com/maps/search/?api=1&query=41.6842633,-73.1962245"
    },
    {
      "id": "nayara-springs-adults-only-la-fortuna",
      "name": "Nayara Springs",
      "city": "Adults only - La Fortuna",
      "country": "Costa Rica",
      "latitude": 10.4678,
      "longitude": -84.6428,
      "map_url": "https://www.google.com/maps/search/?api=1&query=10.4678,-84.6428",
      "needs_review": false
    },
    {
      "id": "tabacon-thermal-resort-spa-arenal",
      "name": "Tabacon Thermal Resort & Spa",
      "city": "Arenal",
      "country": "Costa Rica",
      "latitude": 10.4625,
      "longitude": -84.7033,
      "map_url": "https://www.google.com/maps/search/?api=1&query=10.4625,-84.7033",
      "needs_review": false
    },
    {
      "id": "w-costa-rica-reserva-conchal-cabo-velas",
      "name": "W Costa Rica - Reserva Conchal",
      "brand": "W Hotels",
      "city": "Cabo Velas",
      "country": "Costa Rica",
      "needs_review": false,
      "latitude": 10.3667,
      "longitude": -85.85,
      "map_url": "https://www.google.com/maps/search/?api=1&query=10.3667,-85.85"
    },
    {
      "id": "hotel-nantipa-a-tico-beach-experience-c-bano",
      "name": "Hotel Nantipa - A Tico Beach Experience",
      "city": "Cóbano",
      "country": "Costa Rica",
      "needs_review": true,
      "latitude": 9.6921668,
      "longitude": -85.1022314,
      "map_url": "https://www.google.com/maps/search/?api=1&query=9.6921668,-85.1022314"
    },
    {
      "id": "nayara-gardens-la-fortuna",
      "name": "Nayara Gardens",
      "city": "La Fortuna",
      "country": "Costa Rica",
      "latitude": 10.4678,
      "longitude": -84.6428,
      "map_url": "https://www.google.com/maps/search/?api=1&query=10.4678,-84.6428",
      "needs_review": false
    },
    {
      "id": "nayara-springs-adults-only-la-fortuna",
      "name": "Nayara Springs - Adults only",
      "city": "La Fortuna",
      "country": "Costa Rica",
      "needs_review": false,
      "latitude": 10.4678,
      "longitude": -84.6428,
      "map_url": "https://www.google.com/maps/search/?api=1&query=10.4678,-84.6428"
    },
    {
      "id": "nayara-tented-camp-la-fortuna",
      "name": "Nayara Tented Camp",
      "city": "La Fortuna",
      "country": "Costa Rica",
      "needs_review": true,
      "latitude": 10.4716839,
      "longitude": -84.644436,
      "map_url": "https://www.google.com/maps/search/?api=1&query=10.4716839,-84.644436"
    },